Название;Широта;Долгота;Код станции в реестре ЕСР;Номер линии по FreiCON;Название линии;Область;Район;Железная дорога;Регион РЖД:;Класс станции;Тип
Абрамиха;51.91;106.16;93458;92-002;Иркутск-Пассажирский - Улан-Удэ;Республика Бурятия;Кабанский район;Восточно-Сибирская;Улан-Удэнский;;
Аван;47.49;134.65;97206;96-024;Хабаровск 1 - Сибирцево;Хабаровский край;Вяземский;Дальневосточная;Хабаровский;;
Агней;56.11;111.31;90352;92-017;Лена Восточная-Хани;Республика Бурятия;Северо-Байкальский район;Восточно-Сибирская;Северо-Байкальский ;5;разъезд
Адарка;44.70;132.91;97421;96-024;Хабаровск I - Сибирцево;Приморский край;Спасский район;Дальневосточная;Владивостокский;;
Адарка;44.70;132.91;97421;96-024;Хабаровск I - Сибирцево;Приморский край;Спасский район;Дальневосточная;Владивостокский;;
Адникан;50.95;132.40;91900;96-060;Новый Ургал - Известковая;Хабаровский край;Верхнебуреинский;Дальневосточная;Хабаровский;;
Адо-Тымово;51.12;142.68;99771;96-073;Победино-Сахалинское - Ноглики; Сахалинская область;ГО Тымовский;Дальневосточная;Сахалинский;;
Адриановка;51.57;114.52;94330;94-006;Карымская - Борзя;Забайкальский край;Карымский район;Забайкальская;Борзинский регион;5;промежуточная 
Аку ;56.33;115.39;90653;92-017;Лена Восточная-Хани;Республика Бурятия;Муйский район;Восточно-Сибирская;Северо-Байкальский ;;разъезд
Акур;49.83;140.06;96690;96-019;Комсомольск-Сортировочный - Ванино;Хабаровский край;Ванинский;Дальневосточная;Комсомольский ;;
Аланап;49.97;132.02;91771;96-060;Новый Ургал - Известковая;Хабаровский край;Верхнебуреинский;Дальневосточная;Хабаровский;;
Алеур;52.56;117.11;94911;94-003;Куэнга - Бамовская;Забайкальский край;Чернышевский район;Забайкальская;Читинский регион;4;обгонный пункт
Алонка;51.37;132.44;91690;96-006;Бестужево - Новый Ургал;Хабаровский край;Верхнебуреинский;Дальневосточная;Комсомольский ;;
Алчан;46.63;134.32;97231;96-024;Хабаровск I - Сибирцево;Приморский край;Пожарский район;Дальневосточная;Владивостокский;;
Алчан;46.63;134.32;97231;96-024;Хабаровск I - Сибирцево;Приморский край;Пожарский район;Дальневосточная;Владивостокский;;
Альба;51.33;142.72;99790;96-073;Победино-Сахалинское - Ноглики; Сахалинская область;ГО Тымовский;Дальневосточная;Сахалинский;;
Амазар;53.86;120.88;95110;94-003;Куэнга - Бамовская;Забайкальский край;Могочинский район;Забайкальская;Могочинский регион;4;промежуточная 
Амган;51.46;131.69;91671;96-006;Бестужево - Новый Ургал;Хабаровский край;Верхнебуреинский;Дальневосточная;Комсомольский ;;
Амгунь;51.42;135.10;91880;96-010;Ургал 1 - Комсомольск-Сортировочный;Хабаровский край;Солнечный район;Дальневосточная;Комсомольский ;;
Амур;48.54;135.02;97030;96-023;Дежневка - Хабаровск 1;Хабаровский край;ГО Хабаровск;Дальневосточная;Хабаровский;;
Амурский Залив;43.33;132.06;98211;96-039;Барановский - Угольная;Приморский край;ГО Артем;Дальневосточная;Владивостокский;;
Амут;55.28;125.62;91171;96-006;Бестужево - Новый Ургал;Амурская область;Тындинский район;Дальневосточная;Тындинский;;
Анамакит;56.16;111.53;90353;92-017;Лена Восточная-Хани;Республика Бурятия;Северо-Байкальский район;Восточно-Сибирская;Северо-Байкальский ;;разъезд
Ангаракан ;56.33;113.22;90392;92-016;Ангаракан - Казанкан;Республика Бурятия;Муйский район;Восточно-Сибирская;Северо-Байкальский ;;
Ангаракан ;56.33;113.22;90392;92-017;Лена Восточная-Хани;Республика Бурятия;Муйский район;Восточно-Сибирская;Северо-Байкальский ;5;разъезд
Ангарич;53.83;124.41;95215;94-004;Бамовская - Белогорск;Амурская область;Сковородинский район;Забайкальская;Свободненский регион;4;обгонный пункт
Ангоя;56.01;110.91;90350;92-017;Лена Восточная-Хани;Республика Бурятия;Северо-Байкальский район;Восточно-Сибирская;Северо-Байкальский ;5;промежуточная  
Анисимовка;43.17;132.78;98360;96-053;Смоляниново - Пост 132 км;Приморский край;Шкотовский район;Дальневосточная;Владивостокский;;
Аносовская;54.63;123.97;91042;96-002;Тында - Бамовская;Амурская область;Тындинский район;Дальневосточная;Тындинский;;
Антипиха;51.99;113.55;94230;94-001;Петровский Завод - Карымская;Забайкальский край;Ингодинский район;Забайкальская;Читинский регион;3;грузовая 
Арабатук;50.16;117.07;94561;94-009;Харанор - Приаргунск;Забайкальский край;Забайкальский район;Забайкальская;Борзинский регион;5; разъезд
Арамогойтуй;50.38;117.61;94572;94-009;Харанор - Приаргунск;Забайкальский край;Краснокаменский район;Забайкальская;Борзинский регион;5;разъезд
Арга;51.28;128.24;95400;94-004;Бамовская - Белогорск;Амурская область;Серышевский район;Забайкальская;Свободненский регион;4;промежуточная 
Арги-Паги;48.43;142.71;99792;96-064;Арсентьевка-Победино-Сахалинское; Сахалинская область;ГО Тымовский;Дальневосточная;Сахалинский;;
Аркум;56.19;113.85;90603;92-017;Лена Восточная-Хани;Республика Бурятия;Муйский район;Восточно-Сибирская;Северо-Байкальский ;;разъезд
Арсентьевка ;47.92;142.49;99260;96-064;Арсентьевка-Победино-Сахалинское; Сахалинская область;ГО Долинский;Дальневосточная;Сахалинский;;
Арсентьевка ;47.92;142.49;99260;96-063;Южно-Сахалинск-Арсентьевка; Сахалинская область;ГО Долинский;Дальневосточная;Сахалинский;;
Арсеньев;44.18;133.27;97620;96-030;Сибирцево - Новочугуевка;Приморский край;ГО Арсеньев;Дальневосточная;Владивостокский;;
Артём;43.35;132.15;98221;96-052;Угловая - Смоляниново;Приморский край;ГО Артем;Дальневосточная;Владивостокский;;
Артеушка;53.78;119.29;95071;94-003;Куэнга - Бамовская;Забайкальский край;Могочинский район;Забайкальская;Могочинский регион;4;железнодорожная 
Архара;49.42;130.08;96060;96-011;Архара - Известковая;Амурская область;Архаринский район;Дальневосточная;Хабаровский;3;
Арчикой;53.03;117.40;94952;94-003;Куэнга - Бамовская;Забайкальский край;Чернышевский район;Забайкальская;Могочинский регион;5;обгонный пункт
Атамановка;51.93;113.63;94250;94-001;Петровский Завод - Карымская;Забайкальский край;Читинский район;Забайкальская;Читинский регион;4;промежуточная 
Аур;48.63;133.42;96330;96-014;Биробиджан 1 - Волочаевка 1;ЕАО;Смидовичский район;Дальневосточная;Хабаровский;;
Аям;56.05;124.88;91121;96-004;Бестужево - Нерюнгри-Пассажирская;Саха-Якутия;Нерюнгринский район;Дальневосточная;Тындинский;;
Аячи;54.08;121.69;95123;94-003;Куэнга - Бамовская;Амурская область;Сковородинский район;Забайкальская;Могочинский регион;4;обгонный пункт
Бада;51.39;109.86;94070;94-001;Петровский Завод - Карымская;Забайкальский край;Хилокский район;Забайкальская;Читинский регион;4;промежуточная 
Байкальский Прибой;51.94;106.20;93468;92-002;Иркутск-Пассажирский - Улан-Удэ;Республика Бурятия;Кабанский район;Восточно-Сибирская;Улан-Удэнский;;
Байково;47.48;141.97;99441;96-070;Холмск-Северный-Ильинск-Сахалинский; Сахалинская область;ГО Холмск;Дальневосточная;Сахалинский;;
Баканы;56.16;112.00;90383;92-017;Лена Восточная-Хани;Республика Бурятия;Северо-Байкальский район;Восточно-Сибирская;Северо-Байкальский ;;разъезд
Балбухта;56.45;116.68;90437;92-017;Лена Восточная-Хани;Забайкальский край;Каларский район;Забайкальская;Северо-Байкальский ;;разъезд
Баляга;51.15;108.94;94030;94-001;Петровский Завод - Карымская;Забайкальский край;Петровск-Забайкальский район;Забайкальская;Читинский регион;4;промежуточная 
Бамбурово;42.94;131.32;98758;96-044;Барановский - Гвоздево;Приморский край;Хасанский район;Дальневосточная;Владивостокский;;
Бамовская;54.12;123.70;95160;94-003;Куэнга - Бамовская;Амурская область;Сковородинский район;Забайкальская;Могочинский регион;;
Бамовская;54.12;123.70;95160;94-004;Бамовская - Белогорск;Амурская область;Сковородинский район;Забайкальская;Могочинский регион;4;промежуточная 
Баневурово;43.70;131.96;98823;96-036;Уссурийск - Барановский;Приморский край;ГО Уссурийск;Дальневосточная;Владивостокский;;
Барановский;43.65;131.93;98840;96-036;Уссурийск - Барановский;Приморский край;Надеждинский район;Дальневосточная;Владивостокский;;
Барановский;43.65;131.93;98840;96-039;Барановский - Угольная;Приморский край;Надеждинский район;Дальневосточная;Владивостокский;;
Барановский;43.65;131.93;98840;96-044;Барановский - Гвоздево;Приморский край;Надеждинский район;Дальневосточная;Владивостокский;;
Бараты;51.24;106.38;93630;92-009;Заудинский - Наушки;Республика Бурятия;Селенгинский район;Восточно-Сибирская;Улан-Удэнский;;промежуточная
Бархатная;42.83;132.90;98451;96-056;Пост 132 км - мыс Астафьева;Приморский край;ГО Находка;Дальневосточная;Владивостокский;;
Безречная;50.73;116.18;94440;94-006;Карымская - Борзя;Забайкальский край;Оловяннинский район;Забайкальская;Борзинский регион;;промежуточная 
Беленькая;54.87;124.38;91033;96-002;Тында - Бамовская;Амурская область;Тындинский район;Дальневосточная;Тындинский;;
Белогорск;50.92;128.46;95000;94-004;Бамовская - Белогорск;Амурская область;ГО Белогорск;Забайкальская;Борзинский регион;;
Белогорск;50.92;128.46;95000;94-005;Белогорск - Архара;Амурская область;ГО Белогорск;Забайкальская;Борзинский регион;;
Белогорск;50.92;128.46;95000;94-018;Белогорск - Благовещенск;Амурская область;ГО Белогорск;Забайкальская;Свободненский регион;0;грузовая 
Белогорье;50.45;127.69;95451;94-018;Белогорск - Благовещенск;Амурская область;ГО Благовещенск;Забайкальская;Свободненский регион;5;разъезд
Береговой;52.02;106.75;93482;92-002;Иркутск-Пассажирский - Улан-Удэ;Республика Бурятия;Кабанский район;Восточно-Сибирская;Улан-Удэнский;;
Березняки-Сахалинские;47.13;142.75;99126;96-063;Южно-Сахалинск-Арсентьевка; Сахалинская область;ГО Южно-Сахалинск ;Дальневосточная;Сахалинский;;
Берёзовский-Восточный;50.59;127.87;95440;94-018;Белогорск - Благовещенск;Амурская область;Ивановский район;Забайкальская;Свободненский регион;4;промежуточная 
Берея;52.16;127.47;95311;94-004;Бамовская - Белогорск;Амурская область;Шимановский район;Забайкальская;Свободненский регион;4;обгонный пункт
Беркакит;56.58;124.77;91140;96-004;Бестужево - Нерюнгри-Пассажирская;Саха-Якутия;Нерюнгринский район;Дальневосточная;Тындинский;;
Бестужево;55.26;125.04;91083;96-004;Бестужево - Нерюнгри-Пассажирская;Амурская область;Нерюнгринский район;Дальневосточная;Тындинский;;
Бестужево;55.26;125.04;91083;96-006;Бестужево - Новый Ургал;Амурская область;Тындинский район;Дальневосточная;Тындинский;;
Бикин;46.82;134.25;97220;96-024;Хабаровск 1 - Сибирцево;Хабаровский край;Бикинский район;Дальневосточная;Хабаровский;;
Бира;49.00;132.46;96250;96-012;Известковая - Биробиджан 1;ЕАО;Облученский район;Дальневосточная;Хабаровский;;
Биракан;48.99;131.72;96200;96-012;Известковая - Биробиджан 1;ЕАО;Облученский район;Дальневосточная;Хабаровский;;
Биробиджан 1;48.79;132.94;96280;96-012;Известковая - Биробиджан 1;ЕАО;ГО Биробиджан;Дальневосточная;Хабаровский;;
Биробиджан 1;48.79;132.94;96280;96-013;Биробиджан 1 - Ленинск;ЕАО;ГО Биробиджан;Дальневосточная;Хабаровский;;
Биробиджан 1;48.79;132.94;96280;96-014;Биробиджан 1 - Волочаевка 1;ЕАО;ГО Биробиджан;Дальневосточная;Хабаровский;;
Биробиджан 2;48.76;132.90;96300;96-013;Биробиджан 1 - Ленинск;ЕАО;ГО Биробиджан;Дальневосточная;Хабаровский;;
Благовещенск;50.29;127.54;95470;94-018;Белогорск - Благовещенск;Амурская область;ГО Благовещенск;Забайкальская;Свободненский регион;1;грузовая 
Богучан;49.28;130.26;96080;96-011;Архара - Известковая;Амурская область;Архаринский район;Дальневосточная;Хабаровский;;
Бойцово;46.99;134.32;97213;96-024;Хабаровск 1 - Сибирцево;Хабаровский край;Бикинский район;Дальневосточная;Хабаровский;;
Болен;51.56;135.88;91910;96-010;Ургал 1 - Комсомольск-Сортировочный;Хабаровский край;Солнечный район;Дальневосточная;Комсомольский ;;
Болонь;49.90;136.13;96480;96-018;Волочаевка 2 - Комсомольск-Сортировочный;Хабаровский край;Амурский район;Дальневосточная;Комсомольский ;;
Болотная-Сахалинская;48.26;142.59;99521;96-064;Арсентьевка-Победино-Сахалинское; Сахалинская область;ГО Корсаков;Дальневосточная;Сахалинский;;
Большая Елань;46.92;142.73;99061;96-062;Корсаков-Южно-Сахалинск; Сахалинская область;ГО Южно-Сахалинск ;Дальневосточная;Сахалинский;;
Большая Омутная;54.02;122.26;95135;94-003;Куэнга - Бамовская;Амурская область;Сковородинский район;Забайкальская;Могочинский регион;4;обгонный пункт
Большая Речка;51.97;106.31;93471;92-002;Иркутск-Пассажирский - Улан-Удэ;Республика Бурятия;Кабанский район;Восточно-Сибирская;Улан-Удэнский;;
Большой Невер;53.98;124.16;95210;94-004;Бамовская - Белогорск;Амурская область;Сковородинский район;Забайкальская;Могочинский регион;4;промежуточная 
Борзя;50.39;116.52;94470;94-006;Карымская - Борзя;Забайкальский край;Борзинский район;Забайкальская;Борзинский регион;;
Борзя;50.39;116.52;94470;94-007;Борзя - Забайкальск;Забайкальский край;Борзинский район;Забайкальская;Борзинский регион;2;участковая 
Боярский;51.85;106.07;93465;92-002;Иркутск-Пассажирский - Улан-Удэ;Республика Бурятия;Кабанский район;Восточно-Сибирская;Улан-Удэнский;;обгонный пункт
Брусит;49.10;131.58;91820;96-060;Новый Ургал - Известковая;ЕАО;Облученский район;Дальневосточная;Хабаровский;;
Будукан;49.02;132.24;96242;96-012;Известковая - Биробиджан 1;ЕАО;Облученский район;Дальневосточная;Хабаровский;;
Буйневич (пп);46.34;134.05;97261;96-024;Хабаровск I - Сибирцево;Приморский край;Пожарский район;Дальневосточная;Владивостокский;;
Букачача;52.98;116.91;94930;94-016;Чернышевск-Забайкальский - Букчача;Забайкальский край;Чернышевский район;Забайкальская;Читинский регион;5;промежуточная 
Булак;51.03;115.34;94371;94-006;Карымская - Борзя;Забайкальский край;Могойтуйский район;Забайкальская;Борзинский регион;5;разъезд
Буреинск;51.13;132.48;91701;96-006;Бестужево - Новый Ургал;Хабаровский край;Верхнебуреинский;Дальневосточная;Комсомольский ;;
Бурея;49.81;129.81;95630;94-005;Белогорск - Архара;Амурская область;Бурейский район;Забайкальская;Свободненский регион;;
Бурея;49.81;129.81;95630;94-020;Бурея - Холодный Ключ;Амурская область;Бурейский район;Забайкальская;Свободненский регион;2;грузовая 
Бурлит-Волочаевский;46.56;134.26;97241;96-024;Хабаровск I - Сибирцево;Приморский край;Пожарский район;Дальневосточная;Владивостокский;;
Бурятская;51.45;114.71;94334;94-006;Карымская - Борзя;Забайкальский край;Могойтуйский район;Забайкальская;Борзинский регион;5;разъезд
Бутиха;50.77;106.27;93651;92-009;Заудинский - Наушки;Республика Бурятия;Джидинский район;Восточно-Сибирская;Улан-Удэнский;;
Бушулей;52.75;117.27;94913;94-003;Куэнга - Бамовская;Забайкальский край;Чернышевский район;Забайкальская;Читинский регион;4;обгонный пункт
Буюклы ;49.54;142.87;99660;96-064;Арсентьевка-Победино-Сахалинское; Сахалинская область;ГО Смирныховский;Дальневосточная;Сахалинский;;
Буянки;44.18;132.88;97590;96-030;Сибирцево - Новочугуевка;Приморский край;Черниговский район;Дальневосточная;Владивостокский;;
Бырка;50.74;115.95;94420;94-006;Карымская - Борзя;Забайкальский край;Оловяннинский район;Забайкальская;Борзинский регион;5;промежуточная 
Вандан;48.98;135.09;96401;96-018;Волочаевка 2 - Комсомольск-Сортировочный;Хабаровский край;Амурский район;Дальневосточная;Хабаровский;;
Ванино;49.09;140.26;96760;96-019;Комсомольск-Сортировочный - Ванино;Хабаровский край;Ванинский;Дальневосточная;Комсомольский ;;
Варфоломеевка;44.29;133.41;97640;96-030;Сибирцево - Новочугуевка;Приморский край;Яковлевский район;Дальневосточная;Владивостокский;;
Вассиановка;44.15;132.65;97571;96-030;Сибирцево - Новочугуевка;Приморский край;Черниговский район;Дальневосточная;Владивостокский;;
Вахрушев-Сахалинский ;48.98;142.94;99580;96-064;Арсентьевка-Победино-Сахалинское; Сахалинская область;ГО Поронайск;Дальневосточная;Сахалинский;;
Верино;47.98;135.05;97140;96-024;Хабаровск 1 - Сибирцево;Хабаровский край;Район имени Лазо;Дальневосточная;Хабаровский;;
Верхнезейск;54.62;128.54;91320;96-006;Бестужево - Новый Ургал;Амурская область;Зейский район;Дальневосточная;Тындинский;;
Весенняя;43.28;132.05;98203;96-040;Угольная - Владивосток;Приморский край;ГО Владивосток;Дальневосточная;Владивостокский;;
Виневитино;43.42;131.75;96800;96-044;Барановский - Гвоздево;Приморский край;Надеждинский район;Дальневосточная;Владивостокский;;
Владивосток;43.11;131.88;98000;96-040;Угольная - Владивосток;Приморский край;ГО Владивосток;Дальневосточная;Владивостокский;0;внеклассная 
Владивосток;43.11;131.88;98000;96-041;Владивосток - Мыс-Чуркин;Приморский край;ГО Владивосток;Дальневосточная;Владивостокский;0;внеклассная 
Вогутон;45.94;133.83;97275;96-028;Эбергард - Лазо;Приморский край;Дальнереченский район;Дальневосточная;Владивостокский;;
Возвращение;49.41;142.85;99642;96-064;Арсентьевка-Победино-Сахалинское; Сахалинская область;ГО Поронайск;Дальневосточная;Сахалинский;;
Воздвиженский;43.94;131.87;98870;96-037;Уссурийск - Воздвиженский;Приморский край;ГО Уссурийск;Дальневосточная;Владивостокский;;
Воздвиженский;43.94;131.87;98870;96-038;Воздвиженский - Гродеково;Приморский край;ГО Уссурийск;Дальневосточная;Владивостокский;;
Возжаевка;50.73;128.72;95520;94-005;Белогорск - Архара;Амурская область;Белогорский район;Забайкальская;Свободненский регион;4;промежуточная 
Волочаевка 1;48.56;134.48;96350;96-014;Биробиджан 1 - Волочаевка 1;ЕАО;Смидовичский район;Дальневосточная;Хабаровский;;
Восточный Порт;42.73;133.09;98592;96-057;Находка - Восточный Порт;Приморский край;ГО Находка;Дальневосточная;Владивостокский;;
Восточный-Сахалинский ;48.28;142.61;99544;96-064;Арсентьевка-Победино-Сахалинское; Сахалинская область;Макаровский район;Дальневосточная;Сахалинский;;
Вторая Речка;43.16;131.90;98180;96-040;Угольная - Владивосток;Приморский край;ГО Владивосток;Дальневосточная;Владивостокский;;
Выдрино;51.45;104.64;93400;92-002;Иркутск-Пассажирский - Улан-Удэ;Республика Бурятия;Кабанский район;Восточно-Сибирская;Улан-Удэнский;4;промежуточная
Высокогорная;50.10;139.13;96650;96-019;Комсомольск-Сортировочный - Ванино-Высокогорская;Хабаровский край;Ванинский;Дальневосточная;Комсомольский ;;
Вяземская;47.54;134.75;97190;96-024;Хабаровск 1 - Сибирцево;Хабаровский край;Вяземский;Дальневосточная;Хабаровский;;
Гайдамак;43.11;131.94;98060;96-041;Владивосток - Мыс-Чуркин;Приморский край;ГО Находка;Дальневосточная;Владивостокский;;
Гайтер;50.36;137.25;96580;96-019;Комсомольск-Сортировочный - Ванино;Хабаровский край;Комсомольский район;Дальневосточная;Комсомольский ;;
Гастелло;49.10;142.96;99581;96-064;Арсентьевка-Победино-Сахалинское; Сахалинская область;ГО Поронайск;Дальневосточная;Сахалинский;;
Гвоздево;42.69;130.91;98750;96-045;Гвоздево - Хасан;Приморский край;Хасанский район;Дальневосточная;Владивостокский;;
Гвоздево;42.69;130.91;98750;96-044;Барановский - Гвоздево;Приморский край;Хасанский район;Дальневосточная;Владивостокский;;
Гвоздевский;51.72;131.16;91641;96-006;Бестужево - Новый Ургал;Амурская область;Селемджинский район;Дальневосточная;Комсомольский ;;
Гедике;47.37;134.49;97202;96-024;Хабаровск 1 - Сибирцево;Хабаровский край;Вяземский;Дальневосточная;Хабаровский;;
Герби;50.80;134.12;91850;96-010;Ургал 1 - Комсомольск-Сортировочный;Хабаровский край;Верхнебуреинский;Дальневосточная;Комсомольский ;;
Германовский;53.85;120.78;95103;94-003;Куэнга - Бамовская;Забайкальский край;Могочинский район;Забайкальская;Могочинский регион;5;обгонный пункт
Гилюй;55.40;124.96;91091;96-004;Бестужево - Нерюнгри-Пассажирская;Амурская область;Тындинский район;Дальневосточная;Тындинский;;
Голенки;44.07;131.78;98880;96-038;Воздвиженский - Гродеково;Приморский край;Октябрьский район;Дальневосточная;Владивостокский;;
Гонгота;51.77;112.25;94150;94-001;Петровский Завод - Карымская;Забайкальский край;Читинский район;Забайкальская;Читинский регион;4;грузовая 
Гонжа;53.58;125.38;95240;94-004;Бамовская - Белогорск;Амурская область;Магдагачинский район;Забайкальская;Свободненский регион;4;промежуточная 
Гончарово-Сахалинское;49.25;143.01;99631;96-064;Арсентьевка-Победино-Сахалинское; Сахалинская область;ГО Поронайск;Дальневосточная;Сахалинский;;
Горелый;54.11;123.77;95161;94-004;Бамовская - Белогорск;Амурская область;Сковородинский район;Забайкальская;Могочинский регион;4;обгонный пункт
Горин;51.20;136.67;91940;96-010;Ургал 1 - Комсомольск-Сортировочный;Хабаровский край;Солнечный район;Дальневосточная;Комсомольский ;;
Горнозаводск ;46.57;141.82;99301;96-066;Холмск-Северный-Шахта Сахалинская; Сахалинская область;ГО Невельский ;Дальневосточная;Сахалинский;;
Горхон;51.56;108.79;93820;92-005;Заудинский - Петровский Завод;Республика Бурятия;Заиграевский район;Восточно-Сибирская;Улан-Удэнский;3;промежуточная
Горячий Ключ;56.17;113.54;90572;92-016;Ангаракан - Казанкан;Республика Бурятия;Муйский район;Восточно-Сибирская;Северо-Байкальский ;;разъезд
Гоуджекит;55.71;109.07;90311;92-017;Лена Восточная-Хани;Республика Бурятия;Северо-Байкальский район;Восточно-Сибирская;Северо-Байкальский ;;разъезд
Гребенская;48.49;142.72;99542;96-064;Арсентьевка-Победино-Сахалинское; Сахалинская область;Макаровский район;Дальневосточная;Сахалинский;;
Гремячий;51.76;105.97;93462;92-002;Иркутск-Пассажирский - Улан-Удэ;Республика Бурятия;Кабанский район;Восточно-Сибирская;Улан-Удэнский;;
Гродеково;44.40;131.35;98920;96-038;Воздвиженский - Гродеково;Приморский край;Пограничный район;Дальневосточная;Владивостокский;;
Грушевое;45.83;133.61;97341;96-024;Хабаровск I - Сибирцево;Приморский край;Дальнереченский район;Дальневосточная;Владивостокский;;
Губерово;46.20;133.95;97270;96-024;Хабаровск I - Сибирцево;Приморский край;Пожарский район;Дальневосточная;Владивостокский;;
Гудачи;53.69;125.24;95230;94-004;Бамовская - Белогорск;Амурская область;Магдагачинский район;Забайкальская;Свободненский регион;4;грузовая 
Гурское;50.32;138.08;96620;96-019;Комсомольск-Сортировочный - Ванино;Хабаровский край;Комсомольский район;Дальневосточная;Комсомольский ;;
Гусиное Озеро;51.11;106.27;93640;92-009;Заудинский - Наушки;Республика Бурятия;Селенгинский район;Восточно-Сибирская;Улан-Удэнский;4;промежуточная
Гыршелун;51.40;110.66;94100;94-001;Петровский Завод - Карымская;Забайкальский край;Хилокский район;Забайкальская;Читинский регион;4;промежуточная 
Дабан;55.74;108.87;90318;92-017;Лена Восточная-Хани;Республика Бурятия;Северо-Байкальский район;Восточно-Сибирская;Северо-Байкальский ;5;разъезд
Дактуй;53.34;126.17;95260;94-004;Бамовская - Белогорск;Амурская область;Магдагачинский район;Забайкальская;Свободненский регион;4;промежуточная 
Дальневосточный;49.17;135.17;96422;96-018;Волочаевка 2 - Комсомольск-Сортировочный;Хабаровский край;Амурский район;Дальневосточная;Хабаровский;;
Дальнереченск 2;45.91;133.80;97380;96-028;Эбергард - Лазо;Приморский край;Дальнереченский район;Дальневосточная;Владивостокский;;
Дальнереченск-1;45.93;133.72;97280;96-024;Хабаровск I - Сибирцево;Приморский край;Дальнереченский район;Дальневосточная;Владивостокский;;
Дарасун;51.67;113.98;94290;94-001;Петровский Завод - Карымская;Забайкальский край;Карымский район;Забайкальская;Читинский регион;4;промежуточная 
Датта;50.09;139.34;96652;96-019;Комсомольск-Сортировочный - Ванино;Хабаровский край;Ванинский;Дальневосточная;Комсомольский ;;
Даурия;49.93;116.84;94660;94-007;Борзя - Забайкальск;Забайкальский край;Забайкальский район;Забайкальская;Борзинский регион;;промежуточная 
Дежневка;48.54;134.63;96352;96-023;Дежневка - Хабаровск 1;ЕАО;Смидовичский район;Дальневосточная;Хабаровский;;
Демченко;52.09;130.93;91612;96-006;Бестужево - Новый Ургал;Амурская область;Селемджинский район;Дальневосточная;Тындинский;;
Десс;55.13;126.93;91282;96-006;Бестужево - Новый Ургал;Амурская область;Тындинский район;Дальневосточная;Тындинский;;
Джамку;51.12;134.64;91860;96-010;Ургал 1 - Комсомольск-Сортировочный;Хабаровский край;Солнечный район;Дальневосточная;Комсомольский ;;
Джармен;48.71;134.65;96382;96-018;Волочаевка 2 - Комсомольск-Сортировочный;Хабаровский край;Амурский район;Дальневосточная;Хабаровский;;
Джелингра;55.30;125.28;91092;96-006;Бестужево - Новый Ургал;Амурская область;Тындинский район;Дальневосточная;Тындинский;;
Джелюмкен;48.92;134.97;96403;96-018;Волочаевка 2 - Комсомольск-Сортировочный;Хабаровский край;Амурский район;Дальневосточная;Хабаровский;;
Джигдаси;50.08;139.73;96661;96-019;Комсомольск-Сортировочный - Ванино;Хабаровский край;Ванинский;Дальневосточная;Комсомольский ;;
Джида;50.69;106.18;93660;92-009;Заудинский - Наушки;Республика Бурятия;Селенгинский район;Восточно-Сибирская;Улан-Удэнский;5;промежуточная
Джиктанда;53.73;124.53;95217;94-004;Бамовская - Белогорск;Амурская область;Сковородинский район;Забайкальская;Свободненский регион;5;обгонный пункт
Дивизионная;51.89;107.52;93540;92-002;Иркутск-Пассажирский - Улан-Удэ;Республика Бурятия;ГО Улан-Удэ;Восточно-Сибирская;Улан-Удэнский;4;промежуточная
Дипкун;55.13;126.79;91230;96-006;Бестужево - Новый Ургал;Амурская область;Тындинский район;Дальневосточная;Тындинский;;
Долинск ;47.33;142.79;99200;96-063;Южно-Сахалинск-Арсентьевка; Сахалинская область;ГО Долинский;Дальневосточная;Сахалинский;;
Домикан;49.65;129.94;95704;94-005;Белогорск - Архара;Амурская область;Архаринский район;Забайкальская;Свободненский регион;4;обгонный пункт
Домна;51.90;113.16;94190;94-001;Петровский Завод - Карымская;Забайкальский край;Читинский район;Забайкальская;Читинский регион;4;грузовая 
Дормидонтовка;47.77;134.91;97172;96-024;Хабаровск 1 - Сибирцево;Хабаровский край;Вяземский;Дальневосточная;Хабаровский;;
Досатуй;50.39;118.64;94600;94-009;Харанор - Приаргунск;Забайкальский край;Приаргунский район;Забайкальская;Борзинский регион;5;промежуточная 
Дрогошевск;52.88;130.42;91590;96-006;Бестужево - Новый Ургал;Амурская область;Селемджинский район;Дальневосточная;Тындинский;;
Дроздов;44.78;132.99;97422;96-024;Хабаровск I - Сибирцево;Приморский край;Спасский район;Дальневосточная;Владивостокский;;
Дубининский;43.94;132.03;97700;96-033;Сибирцево - Дубининский;Приморский край;Михайловский район;Дальневосточная;Владивостокский;;
Дубликан;50.10;132.53;91711;96-060;Новый Ургал - Известковая;Хабаровский край;Верхнебуреинский;Дальневосточная;Хабаровский;;
Дубок;47.72;134.91;97171;96-024;Хабаровск 1 - Сибирцево;Хабаровский край;Вяземский;Дальневосточная;Хабаровский;;
Дугда;53.35;130.00;91570;96-006;Бестужево - Новый Ургал;Амурская область;Зейский район;Дальневосточная;Тындинский;;
Дунай;42.88;132.34;98340;96-054;Смоляниново - Дунай;Приморский край;ГО Фокино;Дальневосточная;Владивостокский;;
Дуссе-Алинь;50.75;133.42;91832;96-010;Ургал 1 - Комсомольск-Сортировочный;Хабаровский край;Верхнебуреинский;Дальневосточная;Комсомольский ;;
Екатериновка;42.91;133.05;98442;96-056;Пост 132 км - мыс Астафьева;Приморский край;Партизанский район;Дальневосточная;Владивостокский;;
Екатеринославка;50.37;129.10;95540;94-005;Белогорск - Архара;Амурская область;Октябрьский район;Забайкальская;Свободненский регион;3;грузовая 
Еловка;51.99;106.51;93476;92-002;Иркутск-Пассажирский - Улан-Удэ;Республика Бурятия;Кабанский район;Восточно-Сибирская;Улан-Удэнский;;
Елочки;49.26;142.86;99634;96-064;Арсентьевка-Победино-Сахалинское; Сахалинская область;ГО Поронайск;Дальневосточная;Сахалинский;;
Ельники-Сахалинские ;49.68;142.85;99671;96-064;Арсентьевка-Победино-Сахалинское; Сахалинская область;ГО Смирныховский;Дальневосточная;Сахалинский;;
Ерофей Павлович;53.95;121.95;95120;94-003;Куэнга - Бамовская;Амурская область;Сковородинский район;Забайкальская;Могочинский регион;3;участковая 
Жанна;54.05;121.41;95115;94-003;Куэнга - Бамовская;Забайкальский край;Могочинский район;Забайкальская;Могочинский регион;5;обгонный пункт
Жипхеген;51.45;110.17;94080;94-001;Петровский Завод - Карымская;Забайкальский край;Хилокский район;Забайкальская;Читинский регион;3;промежуточная 
Жирекен;52.82;117.27;94950;94-003;Куэнга - Бамовская;Забайкальский край;Чернышевский район;Забайкальская;Могочинский регион;4;промежуточная 
Забайкалец;49.37;142.86;99644;96-064;Арсентьевка-Победино-Сахалинское; Сахалинская область;ГО Поронайск;Дальневосточная;Сахалинский;;
Забайкальск;49.64;117.33;94680;94-007;Борзя - Забайкальск;Забайкальский край;Забайкальский район;Забайкальская;Борзинский регион;0;грузовая и пограничная 
Заболотное;54.75;124.23;91031;96-002;Тында - Бамовская;Амурская область;Тындинский район;Дальневосточная;Тындинский;;
Заветы Ильича Сахалинские;46.80;141.92;99313;96-066;Холмск-Северный-Шахта Сахалинская; Сахалинская область;ГО Невельский ;Дальневосточная;Сахалинский;;
Завитая;50.12;129.45;95560;94-005;Белогорск - Архара;Амурская область;ГО Завитинск;Забайкальская;Свободненский регион;;
Завитая;50.12;129.45;95560;94-019;Завитая - Поярково;Амурская область;ГО Завитинск;Забайкальская;Свободненский регион;3;грузовая 
Загустай;51.32;106.49;93620;92-009;Заудинский - Наушки;Республика Бурятия;Селенгинский район;Восточно-Сибирская;Улан-Удэнский;3;промежуточная
Заиграево;51.84;108.28;93780;92-005;Заудинский - Петровский Завод;Республика Бурятия;Заиграевский район;Восточно-Сибирская;Улан-Удэнский;4;промежуточная
Заозерное-Сахалинское ;48.39;142.68;99540;96-064;Арсентьевка-Победино-Сахалинское; Сахалинская область;Макаровский район;Дальневосточная;Сахалинский;;
Заозерное-Старое;48.36;142.67;99545;96-064;Арсентьевка-Победино-Сахалинское; Сахалинская область;Макаровский район;Дальневосточная;Сахалинский;;
Заудинский;51.82;107.68;93570;92-003;Улан-Удэ - Заудинский;Республика Бурятия;ГО Улан-Удэ;Восточно-Сибирская;Улан-Удэнский;;
Заудинский;51.82;107.68;93570;92-005;Заудинский - Петровский Завод;Республика Бурятия;ГО Улан-Удэ;Восточно-Сибирская;Улан-Удэнский;;
Заудинский;51.82;107.68;93570;92-009;Заудинский - Наушки;Республика Бурятия;ГО Улан-Удэ;Восточно-Сибирская;Улан-Удэнский;2;грузовая 
Заячий;55.53;122.94;90915;96-001;Хани - Тында;Амурская область;Тындинский район;Дальневосточная;Тындинский;;
Звонкое;52.30;130.91;91611;96-006;Бестужево - Новый Ургал;Амурская область;Селемджинский район;Дальневосточная;Тындинский;;
Зенит;51.93;107.51;93535;92-002;Иркутск-Пассажирский - Улан-Удэ;Республика Бурятия;ГО Улан-Удэ;Восточно-Сибирская;Улан-Удэнский;;
Зилово;53.07;117.51;94960;94-003;Куэнга - Бамовская;Забайкальский край;Чернышевский район;Забайкальская;Могочинский регион;3;промежуточная 
Зимовье;49.46;131.55;91790;96-060;Новый Ургал - Известковая;Хабаровский край;Верхнебуреинский;Дальневосточная;Хабаровский;;
Змейка;55.24;126.19;91193;96-006;Бестужево - Новый Ургал;Амурская область;Тындинский район;Дальневосточная;Тындинский;;
Золотинка;56.20;124.87;91130;96-004;Бестужево - Нерюнгри-Пассажирская;Саха-Якутия;Нерюнгринский район;Дальневосточная;Тындинский;;
Зубарево;51.79;115.28;94765;94-002;Карымская - Куэнга;Забайкальский край;Шилкинский район;Забайкальская;Читинский регион;4;обгонный пункт
Зудыра;53.10;117.80;94962;94-003;Куэнга - Бамовская;Забайкальский край;Чернышевский район;Забайкальская;Могочинский регион;4;железнодорожная 
Зун-Торей;50.43;116.46;94462;94-006;Карымская - Борзя;Забайкальский край;Борзинский район;Забайкальская;Борзинский регион;4;разъезд
Зырянская Сахалинская;46.90;141.99;99316;96-066;Холмск-Северный-Шахта Сахалинская; Сахалинская область;ГО Холмск;Дальневосточная;Сахалинский;;
Ижак;54.32;128.92;91322;96-006;Бестужево - Новый Ургал;Амурская область;Зейский район;Дальневосточная;Тындинский;;
Известковая;48.98;131.56;96160;96-011;Архара - Известковая;ЕАО;Облученский район;Дальневосточная;Хабаровский;;
Известковая;48.98;131.56;96160;96-012;Известковая - Биробиджан 1;ЕАО;Облученский район;Дальневосточная;Хабаровский;;
Известковая;48.98;131.56;96160;96-060;Новый Ургал - Известковая;ЕАО;Облученский район;Дальневосточная;Хабаровский;;
Известковый Завод;49.01;131.94;96220;96-012;Известковая - Биробиджан 1;ЕАО;Облученский район;Дальневосточная;Хабаровский;;
Икабьекан;57.03;119.09;90453;92-017;Лена Восточная-Хани;Забайкальский край;Каларский район;Забайкальская;Северо-Байкальский ;;разъезд
Икабья ;57.00;118.77;90450;92-017;Лена Восточная-Хани;Забайкальский край;Каларский район;Забайкальская;Северо-Байкальский ;3;промежуточная  
Икура;48.73;133.11;96282;96-014;Биробиджан 1 - Волочаевка 1;ЕАО;Смидовичский район;Дальневосточная;Хабаровский;;
Ильинка;52.12;107.30;93511;92-002;Иркутск-Пассажирский - Улан-Удэ;Республика Бурятия;Прибайкальский район;Восточно-Сибирская;Улан-Удэнский;;
Ильинка;44.88;131.99;97543;96-031;Сибирцево - Платоновка;Приморский край;Ханкайский район;Дальневосточная;Владивостокский;;
Ильинск-Сахалинский ;47.99;142.21;99480;96-069;Холмск-Северный-Ильинск-Сахалинский; Сахалинская область;ГО Томаринский ;Дальневосточная;Сахалинский;;
Ильинск-Сахалинский ;47.99;142.21;99480;96-070;Холмск-Северный-Ильинск-Сахалинский; Сахалинская область;ГО Томаринский ;Дальневосточная;Сахалинский;;
Илька;51.72;108.51;93800;92-005;Заудинский - Петровский Завод;Республика Бурятия;Заиграевский район;Восточно-Сибирская;Улан-Удэнский;4;промежуточная
Им. генерала Милько;54.78;127.93;91300;96-006;Бестужево - Новый Ургал;Амурская область;Зейский район;Дальневосточная;Тындинский;;
Имангракан;56.85;121.12;90802;96-001;Хани - Тында;Амурская область;Тындинский район;Дальневосточная;Тындинский;;
Имбо;49.38;140.04;96711;96-019;Комсомольск-Сортировочный - Ванино;Хабаровский край;Ванинский;Дальневосточная;Комсомольский ;;
Ин;48.59;133.81;96340;96-014;Биробиджан 1 - Волочаевка 1;ЕАО;Смидовичский район;Дальневосточная;Хабаровский;;
Ипполитовка;44.05;132.27;97671;96-033;Сибирцево - Дубининский;Приморский край;Михайловский район;Дальневосточная;Владивостокский;;
Иркир (рзд);51.20;142.71;99781;96-073;Победино-Сахалинское - Ноглики; Сахалинская область;ГО Тымовский;Дальневосточная;Сахалинский;;
Иса;51.75;131.03;91640;96-006;Бестужево - Новый Ургал;Амурская область;Селемджинский район;Дальневосточная;Тындинский;;
Исакан;51.91;131.00;91613;96-006;Бестужево - Новый Ургал;Амурская область;Селемджинский район;Дальневосточная;Тындинский;;
Иташино;53.99;122.04;95126;94-003;Куэнга - Бамовская;Амурская область;Сковородинский район;Забайкальская;Могочинский регион;;
Кабарга;45.32;133.36;97382;96-024;Хабаровск I - Сибирцево;Приморский край;ГО Лесозаводск;Дальневосточная;Владивостокский;;
Кабарга;45.32;133.36;97382;96-029;Ружино - Кабарга;Приморский край;ГО Лесозаводск;Дальневосточная;Владивостокский;;
Кавекта;52.91;117.30;94951;94-003;Куэнга - Бамовская;Забайкальский край;Чернышевский район;Забайкальская;Могочинский регион;5;остановочный пункт
Кавокта;56.32;113.01;90391;92-017;Лена Восточная-Хани;Республика Бурятия;Муйский район;Восточно-Сибирская;Северо-Байкальский ;5;разъезд
Кадала;52.02;113.33;94210;94-001;Петровский Завод - Карымская;Забайкальский край;Черновский район;Забайкальская;Читинский регион;;
Кадала;52.02;113.33;94210;94-012;Кадала - Комбинат;Забайкальский край;Черновский район;Забайкальская;Читинский регион;2;грузовая 
Казанкан;56.17;113.56;90571;92-016;Ангаракан - Казанкан;Республика Бурятия;Муйский район;Восточно-Сибирская;Северо-Байкальский ;;
Казанкан;56.17;113.56;90571;92-017;Лена Восточная-Хани;Республика Бурятия;Муйский район;Восточно-Сибирская;Северо-Байкальский ;5;разъезд
Казаново;51.78;115.87;94780;94-002;Карымская - Куэнга;Забайкальский край;Шилкинский район;Забайкальская;Читинский регион;4;промежуточная 
Казачий;49.05;130.83;96111;96-011;Архара - Известковая;Амурская область;Первомайский район;Дальневосточная;Хабаровский;;
Калинино-Сахалинское;46.87;141.96;99315;96-066;Холмск-Северный-Шахта Сахалинская; Сахалинская область;ГО Холмск;Дальневосточная;Сахалинский;;
Каменушка;47.27;134.36;97204;96-024;Хабаровск 1 - Сибирцево;Хабаровский край;Вяземский;Дальневосточная;Хабаровский;;
Камень-Рыболов;44.73;132.03;97530;96-031;Сибирцево - Платоновка;Приморский край;Ханкайский район;Дальневосточная;Владивостокский;;
Камнега;53.52;129.71;91572;96-006;Бестужево - Новый Ургал;Амурская область;Зейский район;Дальневосточная;Тындинский;;
Картель;50.38;137.39;96590;96-019;Комсомольск-Сортировочный - Ванино;Хабаровский край;Комсомольский район;Дальневосточная;Комсомольский ;;
Карымская;51.62;114.35;94310;94-001;Петровский Завод - Карымская;Забайкальский край;Карымский район;Забайкальская;Читинский регион;;
Карымская;51.62;114.35;94310;94-002;Карымская - Куэнга;Забайкальский край;Карымский район;Забайкальская;Читинский регион;;
Карымская;51.62;114.35;94310;94-006;Карымская - Борзя;Забайкальский край;Карымский район;Забайкальская;Читинский регион;1;сортировочная 
Касаткин;49.14;130.76;96101;96-011;Архара - Известковая;Амурская область;Архаринский район;Дальневосточная;Хабаровский;;
Катама;51.37;136.45;91925;96-010;Ургал 1 - Комсомольск-Сортировочный;Хабаровский край;Солнечный район;Дальневосточная;Комсомольский ;;
Кедровая-Сибирская;51.51;104.93;93418;92-002;Иркутск-Пассажирский - Улан-Удэ;Республика Бурятия;Кабанский район;Восточно-Сибирская;Улан-Удэнский;4;обгонный пункт
Кедровый;43.04;131.53;98800;96-044;Барановский - Гвоздево;Приморский край;Ханкайский район;Дальневосточная;Владивостокский;;
Кемен;56.92;118.53;90454;92-017;Лена Восточная-Хани;Забайкальский край;Каларский район;Забайкальская;Северо-Байкальский ;;разъезд
Кенада;50.13;139.57;96660;96-019;Комсомольск-Сортировочный - Ванино;Хабаровский край;Ванинский;Дальневосточная;Комсомольский ;;
Кенай;50.20;138.58;96640;96-019;Комсомольск-Сортировочный - Ванино;Хабаровский край;Комсомольский район;Дальневосточная;Комсомольский ;;
Кендагиры;53.46;118.54;95052;94-003;Куэнга - Бамовская;Забайкальский край;Могочинский район;Забайкальская;Могочинский регион;4;железнодорожная 
Кижа;51.46;108.88;93831;92-005;Заудинский - Петровский Завод;Республика Бурятия;Заиграевский район;Восточно-Сибирская;Улан-Удэнский;3;обгонный пункт
Кимкан;48.99;131.42;96144;96-011;Архара - Известковая;ЕАО;Облученский район;Дальневосточная;Хабаровский;;
Кипарисово;43.47;131.92;98670;96-039;Барановский - Угольная;Приморский край;Надеждинский район;Дальневосточная;Владивостокский;;
Кирга;48.87;132.85;96271;96-012;Известковая - Биробиджан 1;ЕАО;ГО Биробиджан;Дальневосточная;Хабаровский;;
Кирон;55.95;110.65;90342;92-017;Лена Восточная-Хани;Республика Бурятия;Северо-Байкальский район;Восточно-Сибирская;Северо-Байкальский ;;разъезд
Кичера;55.93;110.10;90340;92-017;Лена Восточная-Хани;Республика Бурятия;Северо-Байкальский район;Восточно-Сибирская;Северо-Байкальский ;3;промежуточная  
Клепиково;54.92;127.60;91281;96-006;Бестужево - Новый Ургал;Амурская область;Тындинский район;Дальневосточная;Тындинский;;
Клюевка;51.69;105.74;93450;92-002;Иркутск-Пассажирский - Улан-Удэ;Республика Бурятия;Кабанский район;Восточно-Сибирская;Улан-Удэнский;;промежуточная
Кнорринг;44.52;132.64;97450;96-024;Хабаровск I - Сибирцево;Приморский край;Спасский район;Дальневосточная;Владивостокский;;
Ковали;53.90;124.20;95212;94-004;Бамовская - Белогорск;Амурская область;Сковородинский район;Забайкальская;Свободненский регион;4;обгонный пункт
Коврижка;51.67;105.67;93441;92-002;Иркутск-Пассажирский - Улан-Удэ;Республика Бурятия;Кабанский район;Восточно-Сибирская;Улан-Удэнский;;
Кодар;56.59;117.30;90434;92-017;Лена Восточная-Хани;Забайкальский край;Каларский район;Забайкальская;Северо-Байкальский ;;разъезд
Койра;56.24;115.85;90651;92-017;Лена Восточная-Хани;Забайкальский край;Каларский район;Забайкальская;Северо-Байкальский ;;разъезд
Кокуй;52.20;117.54;94867;94-014;Куэнга - Сретенск;Забайкальский край;Сретенский район;Забайкальская;Читинский регион;5;разъезд
Колокольный;53.94;121.14;95112;94-003;Куэнга - Бамовская;Забайкальский край;Могочинский район;Забайкальская;Могочинский регион;4;обгонный пункт
Колос;52.05;107.49;93524;92-002;Иркутск-Пассажирский - Улан-Удэ;Республика Бурятия;Прибайкальский район;Восточно-Сибирская;Улан-Удэнский;;
Комсомольск-на-Амуре;50.55;136.99;96010;96-010;Ургал 1 - Комсомольск-Сортировочный;Хабаровский край;Комсомольский район;Дальневосточная;Комсомольский ;;
Комушка;51.80;107.62;93572;92-009;Заудинский - Наушки;Республика Бурятия;ГО Улан-Удэ;Восточно-Сибирская;Улан-Удэнский;;
Корсаков ;46.62;142.77;99000;96-062;Корсаков-Южно-Сахалинск; Сахалинская область;ГО Корсаков;Дальневосточная;Сахалинский;;
Корфовская;48.22;135.08;97120;96-024;Хабаровск 1 - Сибирцево;Хабаровский край;Корфовский район;Дальневосточная;Хабаровский;;
Корчагин;50.51;132.33;91743;96-060;Новый Ургал - Известковая;Хабаровский край;Верхнебуреинский;Дальневосточная;Комсомольский ;;
Косграмбо;50.20;138.93;96643;96-019;Комсомольск-Сортировочный - Ванино;Хабаровский край;Ванинский;Дальневосточная;Комсомольский ;;
Котиково;47.42;134.53;97201;96-024;Хабаровск 1 - Сибирцево;Хабаровский край;Вяземский;Дальневосточная;Хабаровский;;
Кото;50.00;139.87;96670;96-019;Комсомольск-Сортировочный - Ванино;Хабаровский край;Ванинский;Дальневосточная;Комсомольский ;;
Кошевой;49.61;142.85;99661;96-064;Арсентьевка-Победино-Сахалинское; Сахалинская область;ГО Смирныховский;Дальневосточная;Сахалинский;;
Крабовая;42.79;132.88;98540;96-056;Пост 132 км - мыс Астафьева;Приморский край;ГО Находка;Дальневосточная;Владивостокский;;
Краевский;44.97;133.21;97392;96-024;Хабаровск I - Сибирцево;Приморский край;Кировский район;Дальневосточная;Владивостокский;;
Красицкий;47.64;134.86;97181;96-024;Хабаровск 1 - Сибирцево;Хабаровский край;Вяземский;Дальневосточная;Хабаровский;;
Красная Падь;53.46;125.98;95251;94-004;Бамовская - Белогорск;Амурская область;Магдагачинский район;Забайкальская;Свободненский регион;5;обгонный пункт
Красная Речка;48.35;135.09;97110;96-024;Хабаровск 1 - Сибирцево;Хабаровский край;ГО Хабаровск;Дальневосточная;Хабаровский;;
Красноармейский;43.19;133.03;98372;96-053;Смоляниново - Пост 132 км;Приморский край;Партизанский район;Дальневосточная;Владивостокский;;
Краснокаменск;50.15;118.06;94620;94-010;Урулюнгуй - Краснокаменск;Забайкальский край;Краснокаменский район;Забайкальская;Борзинский регион;2;грузовая 
Красноярская-Сахалинская;47.40;141.99;99432;96-070;Холмск-Северный-Ильинск-Сахалинский; Сахалинская область;ГО Холмск;Дальневосточная;Сахалинский;;
Кругликово;48.10;135.11;97130;96-024;Хабаровск 1 - Сибирцево;Хабаровский край;Район имени Лазо;Дальневосточная;Хабаровский;;
Кручина;51.82;113.75;94260;94-001;Петровский Завод - Карымская;Забайкальский край;Читинский район;Забайкальская;Читинский регион;4;промежуточная 
Ксеньевская;53.56;118.72;95060;94-003;Куэнга - Бамовская;Забайкальский край;Могочинский район;Забайкальская;Могочинский регион;4;участковая 
Куанда;56.32;116.07;90650;92-017;Лена Восточная-Хани;Забайкальский край;Каларский район;Забайкальская;Северо-Байкальский ;;промежуточная  
Кувыкта;55.19;124.22;90500;96-001;Хани - Тында;Амурская область;Тындинский район;Дальневосточная;Тындинский;;
Кудули;55.20;126.33;91192;96-006;Бестужево - Новый Ургал;Амурская область;Тындинский район;Дальневосточная;Тындинский;;
Кузнецово;42.96;133.07;98440;96-056;Пост 132 км - мыс Астафьева;Приморский край;Тернейский район;Дальневосточная;Владивостокский;;
Кузнецовский;50.17;138.98;96645;96-019;Комсомольск-Сортировочный - Ванино;Хабаровский край;Ванинский;Дальневосточная;Комсомольский ;;
Култушная;51.89;106.14;93467;92-002;Иркутск-Пассажирский - Улан-Удэ;Республика Бурятия;Кабанский район;Восточно-Сибирская;Улан-Удэнский;;
Кульдур;49.20;131.63;91810;96-060;Новый Ургал - Известковая;ЕАО;Облученский район;Дальневосточная;Хабаровский;;
Кумте;50.44;137.20;96571;96-019;Комсомольск-Сортировочный - Ванино;Хабаровский край;Комсомольский район;Дальневосточная;Комсомольский ;;
Кун;50.27;137.92;96610;96-019;Комсомольск-Сортировочный - Ванино;Хабаровский край;Комсомольский район;Дальневосточная;Комсомольский ;;
Кутыкан;55.30;124.05;90501;96-001;Хани - Тында;Амурская область;Тындинский район;Дальневосточная;Тындинский;;
Куэнга;52.07;117.05;94847;94-002;Карымская - Куэнга;Забайкальский край;Сретенский район;Забайкальская;Читинский регион;;
Куэнга;52.07;117.05;94847;94-003;Куэнга - Бамовская;Забайкальский край;Сретенский район;Забайкальская;Читинский регион;;
Куэнга;52.07;117.05;94847;94-014;Куэнга - Сретенск;Забайкальский край;Сретенский район;Забайкальская;Читинский регион;4;железнодорожная 
Кычыранкы;51.27;132.46;91691;96-006;Бестужево - Новый Ургал;Хабаровский край;Верхнебуреинский;Дальневосточная;Комсомольский ;;
Кюхельбекерская;56.26;112.82;90380;92-017;Лена Восточная-Хани;Республика Бурятия;Северо-Байкальский район;Восточно-Сибирская;Северо-Байкальский ;4;промежуточная  
Лагар-Аул;49.01;131.23;96142;96-011;Архара - Известковая;ЕАО;Облученский район;Дальневосточная;Хабаровский;;
Лазо;45.87;133.64;97330;96-024;Хабаровск I - Сибирцево;Приморский край;Дальнереченский район;Дальневосточная;Владивостокский;;
Лазо;45.87;133.64;97330;96-028;Эбергард - Лазо;Приморский край;Дальнереченский район;Дальневосточная;Владивостокский;;
Ландыши;49.25;140.31;96740;96-019;Комсомольск-Сортировочный - Ванино;Хабаровский край;Ванинский;Дальневосточная;Комсомольский ;;
Ларба;55.50;123.12;90930;96-001;Хани - Тында;Амурская область;Тындинский район;Дальневосточная;Тындинский;;
Ласточка;46.35;134.06;97263;96-024;Хабаровск I - Сибирцево;Приморский край;Пожарский район;Дальневосточная;Владивостокский;;
Ледяная;51.75;128.07;95330;94-004;Бамовская - Белогорск;Амурская область;Свободненский район;Забайкальская;Свободненский регион;4;промежуточная 
Леонидово-Сахалинское;49.29;142.86;99641;96-064;Арсентьевка-Победино-Сахалинское; Сахалинская область;ГО Поронайск;Дальневосточная;Сахалинский;;
Леприндо;56.64;117.58;90433;92-017;Лена Восточная-Хани;Забайкальский край;Каларский район;Восточно-Сибирская;Северо-Байкальский ;;разъезд
Лесная;51.77;113.00;94160;94-001;Петровский Завод - Карымская;Забайкальский край;Читинский район;Забайкальская;Читинский регион;;
Лесная;51.77;113.00;94160;94-011;Лесная - Голубичная;Забайкальский край;Читинский район;Забайкальская;Читинский регион;2;грузовая 
Лесовозный;52.12;107.25;93510;92-002;Иркутск-Пассажирский - Улан-Удэ;Республика Бурятия;Прибайкальский район;Восточно-Сибирская;Улан-Удэнский;;путевой пост
Лесозаводск 1;45.45;133.38;97350;96-024;Хабаровск I - Сибирцево;Приморский край;ГО Лесозаводск;Дальневосточная;Владивостокский;;
Лесозаводск 2;45.46;133.38;97371;96-029;Ружино - Кабарга;Приморский край;ГО Лесозаводск;Дальневосточная;Владивостокский;;
Лиан;50.82;136.94;91971;96-010;Ургал 1 - Комсомольск-Сортировочный;Хабаровский край;Солнечный район;Дальневосточная;Комсомольский ;;
Лимонник;44.40;133.60;97652;96-030;Сибирцево - Новочугуевка;Приморский край;Яковлевский район;Дальневосточная;Владивостокский;;
Липовцы;44.18;131.70;98890;96-038;Воздвиженский - Гродеково;Приморский край;Октябрьский район;Дальневосточная;Владивостокский;;
Литовко;49.24;135.18;96430;96-018;Волочаевка 2 - Комсомольск-Сортировочный;Хабаровский край;Амурский район;Дальневосточная;Хабаровский;;
Ловецкая;46.71;141.88;99311;96-066;Холмск-Северный-Шахта Сахалинская; Сахалинская область;ГО Невельский ;Дальневосточная;Сахалинский;;
Лодья;56.32;115.16;90654;92-017;Лена Восточная-Хани;Республика Бурятия;Муйский район;Восточно-Сибирская;Северо-Байкальский ;5;разъезд
Лозовый;43.06;133.14;98430;96-056;Пост 132 км - мыс Астафьева;Приморский край;Партизанский район;Дальневосточная;Владивостокский;;
Лондоко;49.01;132.00;96232;96-012;Известковая - Биробиджан 1;ЕАО;Облученский район;Дальневосточная;Хабаровский;;
Лопча;55.77;122.77;90900;96-001;Хани - Тында;Амурская область;Тындинский район;Дальневосточная;Тындинский;;
Луговое;47.00;142.75;99111;96-063;Южно-Сахалинск-Арсентьевка; Сахалинская область;ГО Анивский ;Дальневосточная;Сахалинский;;
Лумбир;55.44;123.60;90950;96-001;Хани - Тында;Амурская область;Тындинский район;Дальневосточная;Тындинский;;
Лучегорск;46.48;134.19;97250;96-024;Хабаровск I - Сибирцево;Приморский край;Пожарский район;Дальневосточная;Владивостокский;;
Лучки;44.28;132.25;97510;96-031;Сибирцево - Платоновка;Приморский край;Хорольский район;Дальневосточная;Владивостокский;;
Люнино;46.28;133.10;97262;96-024;Хабаровск I - Сибирцево;Приморский край;Пожарский район;Дальневосточная;Владивостокский;;
Мавринский;51.09;136.88;91950;96-010;Ургал 1 - Комсомольск-Сортировочный;Хабаровский край;Солнечный район;Дальневосточная;Комсомольский ;;
Магдагачи;53.45;125.81;95250;94-004;Бамовская - Белогорск;Амурская область;Магдагачинский район;Забайкальская;Свободненский регион;2;грузовая 
Мадалан;54.06;123.41;95140;94-003;Куэнга - Бамовская;Амурская область;Сковородинский район;Забайкальская;Могочинский регион;4;промежуточная 
Макаров ;48.63;142.79;99550;96-064;Арсентьевка-Победино-Сахалинское; Сахалинская область;Макаровский район;Дальневосточная;Сахалинский;;
Маккавеево;51.75;113.96;94280;94-001;Петровский Завод - Карымская;Забайкальский край;Читинский район;Забайкальская;Читинский регион;3;промежуточная 
Малоковали;54.11;121.54;95117;94-003;Куэнга - Бамовская;Забайкальский край;Могочинский район;Забайкальская;Могочинский регион;5;обгонный пункт
Мамай;51.45;104.77;93403;92-002;Иркутск-Пассажирский - Улан-Удэ;Республика Бурятия;Кабанский район;Восточно-Сибирская;Улан-Удэнский;;
Мандрик;52.09;107.48;93521;92-002;Иркутск-Пассажирский - Улан-Удэ;Республика Бурятия;Прибайкальский район;Восточно-Сибирская;Улан-Удэнский;;
Мантуриха;51.78;105.98;93463;92-002;Иркутск-Пассажирский - Улан-Удэ;Республика Бурятия;Кабанский район;Восточно-Сибирская;Улан-Удэнский;;
Маргуцек;50.40;117.90;94580;94-009;Харанор - Приаргунск;Забайкальский край;Краснокаменский район;Забайкальская;Борзинский регион;5;промежуточная 
Маревая;55.31;125.89;91170;96-006;Бестужево - Новый Ургал;Амурская область;Тындинский район;Дальневосточная;Тындинский;;
Марихта;55.94;122.54;90871;96-001;Хани - Тында;Амурская область;Тындинский район;Дальневосточная;Тындинский;;
Марково-Сахалинское ;48.80;142.89;99570;96-064;Арсентьевка-Победино-Сахалинское; Сахалинская область;Макаровский район;Дальневосточная;Сахалинский;;
Матросово;49.46;142.86;99645;96-064;Арсентьевка-Победино-Сахалинское; Сахалинская область;ГО Поронайск;Дальневосточная;Сахалинский;;
Махалино;42.70;130.78;98740;96-045;Гвоздево - Хасан;Приморский край;Хасанский район;Дальневосточная;Владивостокский;;
Мациевская;49.73;117.27;94672;94-007;Борзя - Забайкальск;Забайкальский край;Забайкальский район;Забайкальская;Борзинский регион;5;разъезд
Мацулевка;46.81;142.73;99043;96-062;Корсаков-Южно-Сахалинск; Сахалинская область;ГО Анивский ;Дальневосточная;Сахалинский;;
Маяк Слепиковского;47.29;142.02;99413;96-070;Холмск-Северный-Ильинск-Сахалинский; Сахалинская область;ГО Холмск;Дальневосточная;Сахалинский;;
Медведчиково;51.78;107.55;93580;92-009;Заудинский - Наушки;Республика Бурятия;ГО Улан-Удэ;Восточно-Сибирская;Улан-Удэнский;4;промежуточная
Менгон;49.98;136.32;96491;96-018;Волочаевка 2 - Комсомольск-Сортировочный;Хабаровский край;Амурский район;Дальневосточная;Комсомольский ;;
Меун;53.06;130.30;91591;96-006;Бестужево - Новый Ургал;Амурская область;Селемджинский район;Дальневосточная;Тындинский;;
Минеральная;47.15;142.06;99402;96-070;Холмск-Северный-Ильинск-Сахалинский; Сахалинская область;ГО Холмск;Дальневосточная;Сахалинский;;
Мирная;50.75;116.05;94431;94-006;Карымская - Борзя;Забайкальский край;Оловяннинский район;Забайкальская;Борзинский регион;5;разъезд
Мирошниченко;53.60;129.28;91453;96-006;Бестужево - Новый Ургал;Амурская область;Зейский район;Дальневосточная;Тындинский;;
Михайло-Чесноковская;51.35;128.15;95370;94-004;Бамовская - Белогорск;Амурская область;Свободненский район;Забайкальская;Свободненский регион;2;грузовая 
Мишиха;51.65;105.59;93432;92-002;Иркутск-Пассажирский - Улан-Удэ;Республика Бурятия;Кабанский район;Восточно-Сибирская;Улан-Удэнский;4;промежуточная
Могды;50.59;133.80;91841;96-010;Ургал 1 - Комсомольск-Сортировочный;Хабаровский край;Верхнебуреинский;Дальневосточная;Комсомольский ;;
Могзон;51.74;111.96;94130;94-001;Петровский Завод - Карымская;Забайкальский край;Хилокский район;Забайкальская;Читинский регион;3;участковая 
Могойтуй;51.28;114.92;94340;94-006;Карымская - Борзя;Забайкальский край;Могойтуйский район;Забайкальская;Борзинский регион;4;промежуточная 
Могот;55.59;124.93;91110;96-004;Бестужево - Нерюнгри-Пассажирская;Амурская область;Тындинский район;Дальневосточная;Тындинский;;
Могоча;53.74;119.77;95080;94-003;Куэнга - Бамовская;Забайкальский край;ГО Могоча;Забайкальская;Могочинский регион;2;участковая 
Молдавский;53.79;129.07;91451;96-006;Бестужево - Новый Ургал;Амурская область;Зейский район;Дальневосточная;Тындинский;;
Монгохто;49.27;140.25;96731;96-019;Комсомольск-Сортировочный - Ванино;Хабаровский край;Ванинский;Дальневосточная;Комсомольский ;;
Мони;51.47;136.13;91912;96-010;Ургал 1 - Комсомольск-Сортировочный;Хабаровский край;Солнечный район;Дальневосточная;Комсомольский ;;
Морозовка;44.59;131.99;97522;96-031;Сибирцево - Платоновка;Приморский край;Ханкайский район;Дальневосточная;Владивостокский;;
Московский Комсомолец;55.14;127.11;91232;96-006;Бестужево - Новый Ургал;Амурская область;Тындинский район;Дальневосточная;Тындинский;;
Мостовка;52.08;107.02;93493;92-002;Иркутск-Пассажирский - Улан-Удэ;Республика Бурятия;Прибайкальский район;Восточно-Сибирская;Улан-Удэнский;;
Мостовой;52.01;107.50;93530;92-002;Иркутск-Пассажирский - Улан-Удэ;Республика Бурятия;ГО Улан-Удэ;Восточно-Сибирская;Улан-Удэнский;4;промежуточная
Моховая Падь;50.37;127.60;95460;94-018;Белогорск - Благовещенск;Амурская область;ГО Благовещенск;Забайкальская;Свободненский регион;4;промежуточная 
Моховой;55.33;123.94;90485;96-001;Хани - Тында;Амурская область;Тындинский район;Дальневосточная;Тындинский;;
Мохортов;54.29;123.86;91065;96-002;Тында - Бамовская;Амурская область;Тындинский район;Дальневосточная;Тындинский;;
Мошка;50.28;132.28;91761;96-060;Новый Ургал - Известковая;Хабаровский край;Верхнебуреинский;Дальневосточная;Хабаровский;;
Мугуле;50.96;132.99;91732;96-010;Ургал 1 - Комсомольск-Сортировочный;Хабаровский край;Верхнебуреинский;Дальневосточная;Комсомольский ;;
Мукунга;50.90;133.16;91734;96-010;Ургал 1 - Комсомольск-Сортировочный;Хабаровский край;Верхнебуреинский;Дальневосточная;Комсомольский ;;
Мульмага;54.79;128.07;91301;96-006;Бестужево - Новый Ургал;Амурская область;Зейский район;Дальневосточная;Тындинский;;
Мульмугакан;54.80;128.33;91302;96-006;Бестужево - Новый Ургал;Амурская область;Зейский район;Дальневосточная;Тындинский;;
Муртой;51.20;106.35;93631;92-009;Заудинский - Наушки;Республика Бурятия;Селенгинский район;Восточно-Сибирская;Улан-Удэнский;;
Муртыгит;54.43;123.86;91060;96-002;Тында - Бамовская;Амурская область;Тындинский район;Дальневосточная;Тындинский;;
Мурурин;57.02;119.35;90452;92-017;Лена Восточная-Хани;Забайкальский край;Каларский район;Забайкальская;Северо-Байкальский ;;разъезд
Мустах;51.64;131.17;91642;96-006;Бестужево - Новый Ургал;Амурская область;Мазановский район;Дальневосточная;Комсомольский ;;
Мухинская;52.27;127.21;95310;94-004;Бамовская - Белогорск;Амурская область;Шимановский район;Забайкальская;Свободненский регион;4;промежуточная 
Мучная;44.34;132.53;97460;96-024;Хабаровск I - Сибирцево;Приморский край;Черниговский район;Дальневосточная;Владивостокский;;
Муякан;56.30;114.33;90601;92-017;Лена Восточная-Хани;Республика Бурятия;Муйский район;Восточно-Сибирская;Северо-Байкальский ;;разъезд
Мылки;50.33;136.77;96550;96-018;Волочаевка 2 - Комсомольск-Сортировочный;Хабаровский край;Амурский район;Дальневосточная;Комсомольский ;;
Мыс Астафьева;42.80;132.90;98560;96-056;Пост 132 км - мыс Астафьева;Приморский край;ГО Находка;Дальневосточная;Владивостокский;;
Мыс Чуркин;43.11;131.90;98080;96-041;Владивосток - Мыс-Чуркин;Приморский край;ГО Владивосток;Дальневосточная;Владивостокский;;
Мысовая;51.72;105.86;93460;92-002;Иркутск-Пассажирский - Улан-Удэ;Республика Бурятия;Кабанский район;Восточно-Сибирская;Улан-Удэнский;2;промежуточная
Нагорная Якутская;55.91;124.98;91120;96-004;Бестужево - Нерюнгри-Пассажирская;Саха-Якутия;Нерюнгринский район;Дальневосточная;Тындинский;;
Надеждинская;43.37;131.99;98650;96-039;Барановский - Угольная;Приморский край;Надеждинский район;Дальневосточная;Владивостокский;;
Налгекан;52.77;116.85;94935;94-016;Чернышевск-Забайкальский - Букчача;Забайкальский край;Чернышевский район;Забайкальская;Читинский регион;;остановочный пункт
Наледный;56.53;117.14;90435;92-017;Лена Восточная-Хани;Забайкальский край;Каларский район;Забайкальская;Северо-Байкальский ;;разъезд
Нальды;50.79;133.32;91831;96-010;Ургал 1 - Комсомольск-Сортировочный;Хабаровский край;Верхнебуреинский;Дальневосточная;Комсомольский ;;
Нанагры;53.24;118.29;95042;94-003;Куэнга - Бамовская;Забайкальский край;Могочинский район;Забайкальская;Могочинский регион;4;обгонный пункт
Наречное;43.20;133.06;98373;96-053;Смоляниново - Пост 132 км;Приморский край;Партизанский район;Дальневосточная;Владивостокский;;
Нарзановка;45.19;133.32;97383;96-024;Хабаровск I - Сибирцево;Приморский край;Кировский район;Дальневосточная;Владивостокский;;
Наушки;50.39;106.10;93690;92-009;Заудинский - Наушки;Республика Бурятия;Кяхтинский район;Восточно-Сибирская;Улан-Удэнский;0;грузовая 
Находка;42.85;132.96;98450;96-056;Пост 132 км - мыс Астафьева;Приморский край;ГО Находка;Дальневосточная;Владивостокский;;
Находка;42.85;132.96;98450;96-057;Находка - Восточный Порт;Приморский край;ГО Находка;Дальневосточная;Владивостокский;;
Находка-Восточная;42.77;133.10;98590;96-057;Находка - Восточный Порт;Приморский край;ГО Находка;Дальневосточная;Владивостокский;;
Невельск ;46.67;141.86;99310;96-066;Холмск-Северный-Шахта Сахалинская; Сахалинская область;ГО Невельский ;Дальневосточная;Сахалинский;;
Некруглый;43.98;132.06;97691;96-033;Сибирцево - Дубининский;Приморский край;Михайловский район;Дальневосточная;Владивостокский;;
Нерчинск;51.98;116.57;94830;94-013;Приисковая - Нерчинск;Забайкальский край;Нерчинский район;Забайкальская;Читинский регион;4;промежуточная 
Нерюнгри-Пассажирская;56.64;124.74;91150;96-004;Бестужево - Нерюнгри-Пассажирская;Саха-Якутия;Нерюнгринский район;Дальневосточная;Тындинский;;
Нижнеангарск;55.81;109.60;90330;92-017;Лена Восточная-Хани;Республика Бурятия;Северо-Байкальский район;Восточно-Сибирская;Северо-Байкальский ;5;промежуточная  
Низина;50.85;128.37;95002;94-018;Белогорск - Благовещенск;Амурская область;Белогорский район;Забайкальская;Свободненский регион;5;разъезд
Николаевка;48.53;134.77;97010;96-023;Дежневка - Хабаровск 1;ЕАО;Смидовичский район;Дальневосточная;Хабаровский;;
Николайчук ;47.01;142.09;99362;96-066;Холмск-Северный-Шахта Сахалинская; Сахалинская область;ГО Холмск;Дальневосточная;Сахалинский;;
Новая;51.77;113.79;94270;94-001;Петровский Завод - Карымская;Забайкальский край;Читинский район;Забайкальская;Читинский регион;4;промежуточная 
Новая Чара;56.80;118.28;90430;92-017;Лена Восточная-Хани;Забайкальский край;Каларский район;Восточно-Сибирская;Северо-Байкальский ;1;участковая железнодорожная 
Новоалександровка ;47.06;142.73;99120;96-063;Южно-Сахалинск-Арсентьевка; Сахалинская область;ГО Южно-Сахалинск ;Дальневосточная;Сахалинский;;
Новое;48.88;142.94;99562;96-064;Арсентьевка-Победино-Сахалинское; Сахалинская область;Макаровский район;Дальневосточная;Сахалинский;;
Новоильинский;51.68;108.70;93810;92-005;Заудинский - Петровский Завод;Республика Бурятия;Заиграевский район;Восточно-Сибирская;Улан-Удэнский;;промежуточная
Новонежино;43.22;132.61;98351;96-053;Смоляниново - Пост 132 км;Приморский край;Шкотовский район;Дальневосточная;Владивостокский;;
Новопавловка;51.21;109.23;94050;94-001;Петровский Завод - Карымская;Забайкальский край;Петровск-Забайкальский район;Забайкальская;Читинский регион;4;промежуточная 
Новоселово-Сахалинское ;47.65;141.99;99452;96-070;Холмск-Северный-Ильинск-Сахалинский; Сахалинская область;ГО Томаринский ;Дальневосточная;Сахалинский;;
Новочугуевка;44.22;133.83;97660;96-030;Сибирцево - Новочугуевка;Приморский край; Чугуевский район;Дальневосточная;Владивостокский;;
Новошахтинская;44.00;132.09;97690;96-033;Сибирцево - Дубининский;Приморский край;Михайловский район;Дальневосточная;Владивостокский;;
Новый Кузнецовский;50.19;138.97;96647;96-019;Комсомольск-Сортировочный - Ванино;Хабаровский край;Ванинский;Дальневосточная;Комсомольский ;;
Новый мир;50.46;136.93;96002;96-019;Комсомольск-Сортировочный - Ванино;Хабаровский край;Комсомольский район;Дальневосточная;Комсомольский ;;
Новый Уоян;56.15;111.73;90360;92-017;Лена Восточная-Хани;Республика Бурятия;Северо-Байкальский район;Восточно-Сибирская;Северо-Байкальский ;3;промежуточная  
Новый Ургал;51.08;132.61;91710;96-060;Новый Ургал - Известковая;Хабаровский край;Верхнебуреинский;Дальневосточная;Комсомольский ;;
Новый Ургал;51.08;132.61;91710;96-006;Бестужево - Новый Ургал;Хабаровский край;Верхнебуреинский;Дальневосточная;Комсомольский ;;
Ноглики ;51.80;143.14;99810;96-073;Победино-Сахалинское - Ноглики; Сахалинская область;ГО Ноглики;Дальневосточная;Сахалинский;;
Нора;53.18;130.20;91592;96-006;Бестужево - Новый Ургал;Амурская область;Селемджинский район;Дальневосточная;Тындинский;;
Нусхи;49.48;135.29;96442;96-018;Волочаевка 2 - Комсомольск-Сортировочный;Хабаровский край;Амурский район;Дальневосточная;Хабаровский;;
Ныш ;51.52;142.81;99800;96-073;Победино-Сахалинское - Ноглики; Сахалинская область;ГО Ноглики;Дальневосточная;Сахалинский;;
Нюкжа;53.53;125.58;95241;94-004;Бамовская - Белогорск;Амурская область;Магдагачинский район;Забайкальская;Свободненский регион;4;обгонный пункт
Нюки;52.02;106.70;93481;92-002;Иркутск-Пассажирский - Улан-Удэ;Республика Бурятия;Кабанский район;Восточно-Сибирская;Улан-Удэнский;;
Облучье;49.01;131.06;96140;96-011;Архара - Известковая;ЕАО;Облученский район;Дальневосточная;Хабаровский;;
Оборчо;56.47;124.79;91132;96-004;Бестужево - Нерюнгри-Пассажирская;Саха-Якутия;Нерюнгринский район;Дальневосточная;Тындинский;;
Огорон;53.96;129.14;91450;96-006;Бестужево - Новый Ургал;Амурская область;Зейский район;Дальневосточная;Тындинский;;
Озёрная Падь;44.03;132.17;97680;96-033;Сибирцево - Дубининский;Приморский край;Михайловский район;Дальневосточная;Владивостокский;;
Океанская;43.24;132.01;98200;96-040;Угольная - Владивосток;Приморский край;ГО Владивосток;Дальневосточная;Владивостокский;;
Окусикан;56.19;113.55;90400;92-017;Лена Восточная-Хани;Республика Бурятия;Муйский район;Восточно-Сибирская;Северо-Байкальский ;5;промежуточная  
Олёкма;57.02;120.73;90800;96-001;Хани - Тында;Амурская область;Тындинский район;Дальневосточная;Тындинский;;
Оленевод;43.59;131.87;98817;96-044;Барановский - Гвоздево;Приморский край;Надеждинский район;Дальневосточная;Владивостокский;;
Олень-Сахалинский ;49.28;142.87;99640;96-064;Арсентьевка-Победино-Сахалинское; Сахалинская область;ГО Поронайск;Дальневосточная;Сахалинский;;
Оловянная;50.94;115.59;94390;94-006;Карымская - Борзя;Забайкальский край;Оловяннинский район;Забайкальская;Борзинский регион;;промежуточная 
Олонгдо;57.01;119.64;90451;92-017;Лена Восточная-Хани;Забайкальский край;Нерюнгринский улус;Забайкальская;Северо-Байкальский ;5;разъезд
Ольгохта;48.61;134.16;96342;96-014;Биробиджан 1 - Волочаевка 1;ЕАО;Смидовичский район;Дальневосточная;Хабаровский;;
Ольдой;54.08;123.52;95151;94-003;Куэнга - Бамовская;Амурская область;Сковородинский район;Забайкальская;Могочинский регион;;
Онор ;50.20;142.72;99710;96-073;Победино-Сахалинское - Ноглики; Сахалинская область;ГО Смирныховский;Дальневосточная;Сахалинский;;
Онохой;51.91;108.04;93770;92-005;Заудинский - Петровский Завод;Республика Бурятия;Заиграевский район;Восточно-Сибирская;Улан-Удэнский;3;промежуточная
Орехово-Приморское;44.14;132.37;97481;96-033;Сибирцево - Дубининский;Приморский край;Черниговский район;Дальневосточная;Владивостокский;;
Орокот;50.69;133.96;91842;96-010;Ургал 1 - Комсомольск-Сортировочный;Хабаровский край;Верхнебуреинский;Дальневосточная;Комсомольский ;;
Осиновка;51.60;105.38;93438;92-002;Иркутск-Пассажирский - Улан-Удэ;Республика Бурятия;Кабанский район;Восточно-Сибирская;Улан-Удэнский;;
Ост. пункт 572 км;51.52;142.81;99791;96-073;Победино-Сахалинское - Ноглики; Сахалинская область;ГО Тымовский;Дальневосточная;Сахалинский;;
Остречная;51.21;115.05;94352;94-006;Карымская - Борзя;Забайкальский край;Могойтуйский район;Забайкальская;Борзинский регион;5;разъезд
Осыпной;56.29;113.38;90574;92-016;Ангаракан - Казанкан;Республика Бурятия;Муйский район;Восточно-Сибирская;Северо-Байкальский ;;разъезд
Откосная;50.19;139.03;96644;96-019;Комсомольск-Сортировочный - Ванино;Хабаровский край;Ванинский;Дальневосточная;Комсомольский ;;
Отроги;49.23;130.57;96091;96-011;Архара - Известковая;Амурская область;Архаринский район;Дальневосточная;Хабаровский;;
Оунэ;50.21;138.86;96642;96-019;Комсомольск-Сортировочный - Ванино;Хабаровский край;Ванинский;Дальневосточная;Комсомольский ;;
Палево ;50.65;142.69;99740;96-073;Победино-Сахалинское - Ноглики; Сахалинская область;ГО Тымовский;Дальневосточная;Сахалинский;;
Партизанск;43.15;133.14;98380;96-053;Смоляниново - Пост 132 км;Приморский край;Партизанский район;Дальневосточная;Владивостокский;;
Партизанские сопки;48.82;134.88;96383;96-018;Волочаевка 2 - Комсомольск-Сортировочный;Хабаровский край;Амурский район;Дальневосточная;Хабаровский;;
Пензенская ;47.90;142.16;99470;96-070;Холмск-Северный-Ильинск-Сахалинский; Сахалинская область;ГО Томаринский ;Дальневосточная;Сахалинский;;
Пеньковая;53.81;119.41;95072;94-003;Куэнга - Бамовская;Забайкальский край;Могочинский район;Забайкальская;Могочинский регион;4;железнодорожная 
Первая Падь;46.67;142.75;99001;96-062;Корсаков-Южно-Сахалинск; Сахалинская область;ГО Корсаков;Дальневосточная;Сахалинский;;
Первая Площадка;52.05;106.90;93491;92-002;Иркутск-Пассажирский - Улан-Удэ;Республика Бурятия;Кабанский район;Восточно-Сибирская;Улан-Удэнский;;
Первая Речка;43.14;131.90;98130;96-040;Угольная - Владивосток;Приморский край;ГО Владивосток;Дальневосточная;Владивостокский;;
Первопроходцев;54.87;127.72;91291;96-006;Бестужево - Новый Ургал;Амурская область;Зейский район;Дальневосточная;Тындинский;;
Перевал;56.24;113.41;90573;92-016;Ангаракан - Казанкан;Республика Бурятия;Муйский район;Восточно-Сибирская;Северо-Байкальский ;5;промежуточная  
Перевальный;49.32;131.66;91802;96-060;Новый Ургал - Известковая;Хабаровский край;Верхнебуреинский;Дальневосточная;Хабаровский;;
Переемная;51.58;105.25;93433;92-002;Иркутск-Пассажирский - Улан-Удэ;Республика Бурятия;Кабанский район;Восточно-Сибирская;Улан-Удэнский;4;обгонный пункт
Перелётный;44.09;132.33;97482;96-033;Сибирцево - Дубининский;Приморский край;Михайловский район;Дальневосточная;Владивостокский;;
Переселенческий;52.38;127.09;95302;94-004;Бамовская - Белогорск;Амурская область;Шимановский район;Забайкальская;Свободненский регион;;
Песчаный Карьер;51.98;106.40;93473;92-002;Иркутск-Пассажирский - Улан-Удэ;Республика Бурятия;Кабанский район;Восточно-Сибирская;Улан-Удэнский;;
Петровка;43.15;132.40;98300;96-054;Смоляниново - Дунай;Приморский край;ГО Большой Камень;Дальневосточная;Владивостокский;;
Петровка;43.15;132.40;98300;96-054;Смоляниново - Дунай;Приморский край;ГО Большой Камень;Дальневосточная;Владивостокский;;
Петровский Завод;51.29;108.86;94010;92-005;Заудинский - Петровский Завод;Забайкальский край;Петровск-Забайкальский район;Забайкальская;Читинский регион;;
Петровский Завод;51.29;108.86;94010;94-001;Петровский Завод - Карымская;Забайкальский край;Петровск-Забайкальский район;Забайкальская;Читинский регион;2;участковая 
Петруши;52.09;127.57;95312;94-004;Бамовская - Белогорск;Амурская область;Шимановский район;Забайкальская;Свободненский регион;5;остановочный пункт
Петуховка;52.03;107.50;93525;92-002;Иркутск-Пассажирский - Улан-Удэ;Республика Бурятия;Прибайкальский район;Восточно-Сибирская;Улан-Удэнский;;
Пивань;50.51;137.07;96570;96-019;Комсомольск-Сортировочный - Ванино;Хабаровский край;Комсомольский район;Дальневосточная;Комсомольский ;;
Пиль;51.15;136.78;91945;96-010;Ургал 1 - Комсомольск-Сортировочный;Хабаровский край;Солнечный район;Дальневосточная;Комсомольский ;;
Пионерская;43.18;131.91;98181;96-040;Угольная - Владивосток;Приморский край;ГО Владивосток;Дальневосточная;Владивостокский;;
Пионеры Сахалинские;47.26;142.02;99412;96-070;Холмск-Северный-Ильинск-Сахалинский; Сахалинская область;ГО Холмск;Дальневосточная;Сахалинский;;
Платоновка;45.02;131.10;97542;96-031;Сибирцево - Платоновка;Приморский край;Ханкайский район;Дальневосточная;Владивостокский;;
Победино-Сахалинское ;49.84;142.82;99690;96-073;Победино-Сахалинское - Ноглики; Сахалинская область;ГО Смирныховский;Дальневосточная;Сахалинский;;
Победино-Сахалинское ;49.84;142.82;99690;96-064;Арсентьевка-Победино-Сахалинское; Сахалинская область;ГО Смирныховский;Дальневосточная;Сахалинский;;
Поворот;51.87;106.10;93466;92-002;Иркутск-Пассажирский - Улан-Удэ;Республика Бурятия;Кабанский район;Восточно-Сибирская;Улан-Удэнский;;
Подали;50.22;136.65;96521;96-018;Волочаевка 2 - Комсомольск-Сортировочный;Хабаровский край;Амурский район;Дальневосточная;Комсомольский ;;
Пожарский;43.01;131.43;98801;96-044;Барановский - Гвоздево;Приморский край;Хасанский район;Дальневосточная;Владивостокский;;
Поздеевка;50.59;128.89;95530;94-005;Белогорск - Архара;Амурская область;Ромненский район;Забайкальская;Свободненский регион;4;промежуточная 
Пойма;42.88;131.24;98757;96-044;Барановский - Гвоздево;Приморский край;Хасанский район;Дальневосточная;Владивостокский;;
Покровский;48.53;134.94;97021;96-023;Дежневка - Хабаровск 1;ЕАО;Смидовичский район;Дальневосточная;Хабаровский;;
Поляково ;47.02;142.03;99322;96-066;Холмск-Северный-Шахта Сахалинская; Сахалинская область;ГО Холмск;Дальневосточная;Сахалинский;;
Поречье-Сахалинское;48.57;142.76;99543;96-064;Арсентьевка-Победино-Сахалинское; Сахалинская область;Макаровский район;Дальневосточная;Сахалинский;;
Поронайск ;49.22;143.09;99630;96-064;Арсентьевка-Победино-Сахалинское; Сахалинская область;ГО Поронайск;Дальневосточная;Сахалинский;;
Посольская;51.97;106.35;93470;92-002;Иркутск-Пассажирский - Улан-Удэ;Республика Бурятия;Кабанский район;Восточно-Сибирская;Улан-Удэнский;4;промежуточная
Постышево;51.66;135.68;91890;96-010;Ургал 1 - Комсомольск-Сортировочный;Хабаровский край;Солнечный район;Дальневосточная;Комсомольский ;;
Почепта;50.36;138.24;96621;96-019;Комсомольск-Сортировочный - Ванино;Хабаровский край;Комсомольский район;Дальневосточная;Комсомольский ;;
Поярково;49.64;128.67;95600;94-019;Завитая - Поярково;Амурская область;Михайловский район;Забайкальская;Свободненский регион;5;грузовая 
Пржевальская;44.31;131.64;98900;96-038;Воздвиженский - Гродеково;Приморский край;Пограничный район;Дальневосточная;Владивостокский;;
Приамурская;48.52;134.90;97020;96-023;Дежневка - Хабаровск 1;ЕАО;Смидовичский район;Дальневосточная;Хабаровский;;
Приаргунск;50.35;119.07;94610;94-009;Харанор - Приаргунск;Забайкальский край;Приаргунский район;Забайкальская;Борзинский регион;4;промежуточная 
Прибой;51.61;105.42;93435;92-002;Иркутск-Пассажирский - Улан-Удэ;Республика Бурятия;Кабанский район;Восточно-Сибирская;Улан-Удэнский;;
Призейская;50.51;127.65;95450;94-018;Белогорск - Благовещенск;Амурская область;ГО Благовещенск;Забайкальская;Свободненский регион;5;промежуточная 
Приисковая;51.92;116.62;94810;94-002;Карымская - Куэнга;Забайкальский край;Нерчинский район;Забайкальская;Читинский регион;;
Приисковая;51.92;116.62;94810;94-013;Приисковая - Нерчинск;Забайкальский край;Нерчинский район;Забайкальская;Читинский регион;4;промежуточная 
Приморская;43.10;131.60;98810;96-044;Барановский - Гвоздево;Приморский край;Хасанский район;Дальневосточная;Владивостокский;;
Провалово;43.29;131.72;98812;96-044;Барановский - Гвоздево;Приморский край;Хасанский район;Дальневосточная;Владивостокский;;
Прогресс;49.76;129.66;95662;94-020;Бурея - Холодный Ключ;Амурская область;ГО Прогресс;Забайкальская;Свободненский регион;5;разъезд
Прохаско;45.63;133.52;97351;96-024;Хабаровск I - Сибирцево;Приморский край;ГО Лесозаводск;Дальневосточная;Владивостокский;;
Пугачево-Сахалинское ;48.20;142.54;99520;96-064;Арсентьевка-Победино-Сахалинское; Сахалинская область;Макаровский район;Дальневосточная;Сахалинский;;
Пурикан;54.56;123.81;91041;96-002;Тында - Бамовская;Амурская область;Тындинский район;Дальневосточная;Тындинский;;
Раздольное;53.81;119.66;95073;94-003;Куэнга - Бамовская;Забайкальский край;Могочинский район;Забайкальская;Могочинский регион;5;остановочный пункт
Раздольное;43.56;131.91;98680;96-039;Барановский - Угольная;Приморский край;Надеждинский район;Дальневосточная;Владивостокский;;
Размахнино;51.77;115.50;94763;94-002;Карымская - Куэнга;Забайкальский край;Шилкинский район;Забайкальская;Читинский регион;4;обгонный пункт
Рассыпная Падь;44.36;131.22;98922;96-038;Воздвиженский - Гродеково;Приморский край;Пограничный район;Дальневосточная;Владивостокский;;
Рачи;49.27;130.36;96081;96-011;Архара - Известковая;Амурская область;Архаринский район;Дальневосточная;Хабаровский;;
Реттиховка;44.17;132.75;97580;96-030;Сибирцево - Новочугуевка;Приморский край;Черниговский район;Дальневосточная;Владивостокский;;
Речка-Выдрино;51.49;104.84;93401;92-002;Иркутск-Пассажирский - Улан-Удэ;Республика Бурятия;Кабанский район;Восточно-Сибирская;Улан-Удэнский;;
Речка-Мишиха;51.64;105.54;93431;92-002;Иркутск-Пассажирский - Улан-Удэ;Республика Бурятия;Кабанский район;Восточно-Сибирская;Улан-Удэнский;;
Речка-Переемная;51.57;105.16;93421;92-002;Иркутск-Пассажирский - Улан-Удэ;Республика Бурятия;Кабанский район;Восточно-Сибирская;Улан-Удэнский;;
Речка-Тимлюй;51.99;106.55;93474;92-002;Иркутск-Пассажирский - Улан-Удэ;Республика Бурятия;Кабанский район;Восточно-Сибирская;Улан-Удэнский;;остановочный пунк
Рихард Зорге;55.74;124.94;91111;96-004;Бестужево - Нерюнгри-Пассажирская;Амурская область;Тындинский район;Дальневосточная;Тындинский;;
Розенгартовка;47.16;134.31;97210;96-024;Хабаровск 1 - Сибирцево;Хабаровский край;Бикинский район;Дальневосточная;Хабаровский;;
Романовка;43.24;132.48;98281;96-053;Смоляниново - Пост 132 км;Приморский край;Шкотовский район;Дальневосточная;Владивостокский;;
Ромашки;49.31;142.87;99643;96-064;Арсентьевка-Победино-Сахалинское; Сахалинская область;ГО Поронайск;Дальневосточная;Сахалинский;;
Ружино;45.49;133.44;97370;96-024;Хабаровск I - Сибирцево;Приморский край;ГО Лесозаводск;Дальневосточная;Владивостокский;;
Ружино;45.49;133.44;97370;96-029;Ружино - Кабарга;Приморский край;ГО Лесозаводск;Дальневосточная;Владивостокский;;
Рыбники;42.79;132.86;98530;96-056;Пост 132 км - мыс Астафьева;Приморский край;ГО Находка;Дальневосточная;Владивостокский;;
Рыбники;42.79;132.86;98530;96-056;Пост 132 км - мыс Астафьева;Приморский край;ГО Находка;Дальневосточная;Владивостокский;;
Рязановка;42.81;131.25;98756;96-044;Барановский - Гвоздево;Приморский край;Хасанский район;Дальневосточная;Владивостокский;;
Сагджему;50.34;138.34;96623;96-019;Комсомольск-Сортировочный - Ванино;Хабаровский край;Комсомольский район;Дальневосточная;Комсомольский ;;
Садгород;43.26;132.04;98202;96-040;Угольная - Владивосток;Приморский край;ГО Владивосток;Дальневосточная;Владивостокский;;
Садовники;47.21;142.05;99411;96-070;Холмск-Северный-Ильинск-Сахалинский; Сахалинская область;ГО Холмск;Дальневосточная;Сахалинский;;
Сакукан;56.74;117.97;90431;92-017;Лена Восточная-Хани;Забайкальский край;Каларский район;Забайкальская;Северо-Байкальский ;;разъезд
Салликит;56.68;117.70;90432;92-017;Лена Восточная-Хани;Забайкальский край;Каларский район;Забайкальская;Северо-Байкальский ;;разъезд
Санаторная;43.23;131.98;98191;96-040;Угольная - Владивосток;Приморский край;ГО Владивосток;Дальневосточная;Владивостокский;;
Санболи;49.36;135.19;96440;96-018;Волочаевка 2 - Комсомольск-Сортировочный;Хабаровский край;Амурский район;Дальневосточная;Хабаровский;;
Саянтуй;51.69;107.44;93590;92-009;Заудинский - Наушки;Республика Бурятия;Тарбагатайский район;Восточно-Сибирская;Улан-Удэнский;5;промежуточная
Сбега;53.31;118.51;95050;94-003;Куэнга - Бамовская;Забайкальский край;Могочинский район;Забайкальская;Могочинский регион;4;промежуточная 
Светляки;46.80;141.92;99314;96-066;Холмск-Северный-Шахта Сахалинская; Сахалинская область;ГО Невельский ;Дальневосточная;Сахалинский;;
Свиягино;44.82;133.07;97410;96-024;Хабаровск I - Сибирцево;Приморский край;Спасский район;Дальневосточная;Владивостокский;;
Свободный;51.39;128.14;95362;94-004;Бамовская - Белогорск;Амурская область;ГО Свободный;Забайкальская;Свободненский регион;5;обгонный пункт
Сгибеево;54.07;122.71;95131;94-003;Куэнга - Бамовская;Амурская область;Сковородинский район;Забайкальская;Могочинский регион;4;обгонный пункт
Северные источники;46.97;142.02;99321;96-066;Холмск-Северный-Шахта Сахалинская; Сахалинская область;ГО Томаринский ;Дальневосточная;Сахалинский;;
Северобайкальск;55.63;109.34;90320;92-017;Лена Восточная-Хани;Республика Бурятия;ГО Северобайкальск;Восточно-Сибирская;Северо-Байкальский ;1;участковая железнодорожная 
Северомуйск;56.17;113.67;90570;92-017;Лена Восточная-Хани;Республика Бурятия;Муйский район;Восточно-Сибирская;Северо-Байкальский ;;промежуточная  
Сегачама;54.01;122.11;95137;94-003;Куэнга - Бамовская;Амурская область;Сковородинский район;Забайкальская;Могочинский регион;5;обгонный пункт
Седанка;43.22;131.95;98192;96-040;Угольная - Владивосток;Приморский край;ГО Владивосток;Дальневосточная;Владивостокский;;
Седловой;51.48;114.54;94333;94-006;Карымская - Борзя;Забайкальский край;Карымский район;Забайкальская;Борзинский регион;5;разъезд
Сектали;51.21;134.74;91861;96-010;Ургал 1 - Комсомольск-Сортировочный;Хабаровский край;Солнечный район;Дальневосточная;Комсомольский ;;
Селенга;52.03;106.87;93490;92-002;Иркутск-Пассажирский - Улан-Удэ;Республика Бурятия;Кабанский район;Восточно-Сибирская;Улан-Удэнский;1;грузо-пассажирская
Селендума;50.87;106.24;93650;92-009;Заудинский - Наушки;Республика Бурятия;Селенгинский район;Восточно-Сибирская;Улан-Удэнский;5;грузо-пассажирская
Селеткан;51.92;127.91;95322;94-004;Бамовская - Белогорск;Амурская область;Шимановский район;Забайкальская;Свободненский регион;4;обгонный пункт
Селихин;50.37;137.50;96600;96-019;Комсомольск-Сортировочный - Ванино;Хабаровский край;Комсомольский район;Дальневосточная;Комсомольский ;;
Сельгон;49.58;135.41;96452;96-018;Волочаевка 2 - Комсомольск-Сортировочный;Хабаровский край;Амурский район;Дальневосточная;Хабаровский;;
Семиозерный;53.71;120.36;95100;94-003;Куэнга - Бамовская;Забайкальский край;Могочинский район;Забайкальская;Могочинский регион;4;промежуточная 
Семисточный;48.96;132.57;96262;96-012;Известковая - Биробиджан 1;ЕАО;Облученский район;Дальневосточная;Хабаровский;;
Сергеево-Сахалинское;47.48;141.99;99442;96-070;Холмск-Северный-Ильинск-Сахалинский; Сахалинская область;ГО Холмск;Дальневосточная;Сахалинский;;
Серышево ;51.09;128.38;95410;94-004;Бамовская - Белогорск;Амурская область;Серышевский район;Забайкальская;Свободненский регион;4;промежуточная 
Сети;55.01;124.61;91020;96-002;Тында - Бамовская;Амурская область;Тындинский район;Дальневосточная;Тындинский;;
Сибирцево;44.21;132.44;97480;96-024;Хабаровск I - Сибирцево;Приморский край;Черниговский район;Дальневосточная;Владивостокский;;
Сибирцево;44.21;132.44;97480;96-030;Сибирцево - Новочугуевка;Приморский край;Черниговский район;Дальневосточная;Владивостокский;;
Сибирцево;44.21;132.44;97480;96-031;Сибирцево - Платоновка;Приморский край;Черниговский район;Дальневосточная;Владивостокский;;
Сибирцево;44.21;132.44;97480;96-033;Сибирцево - Дубининский;Приморский край;Черниговский район;Дальневосточная;Владивостокский;;
Сиваки;52.63;126.75;95300;94-004;Бамовская - Белогорск;Амурская область;Магдагачинский район;Забайкальская;Свободненский регион;4;промежуточная 
Силинка;50.65;136.92;96041;96-010;Ургал 1 - Комсомольск-Сортировочный;Хабаровский край;Комсомольский район;Дальневосточная;Комсомольский ;;
Силип;54.65;124.07;91032;96-002;Тында - Бамовская;Амурская область;Тындинский район;Дальневосточная;Тындинский;;
Симаково ;47.12;142.05;99401;96-070;Холмск-Северный-Ильинск-Сахалинский; Сахалинская область;ГО Холмск;Дальневосточная;Сахалинский;;
Сиреневка;43.42;131.95;98651;96-039;Барановский - Угольная;Приморский край;Надеждинский район;Дальневосточная;Владивостокский;;
Скалистый;52.71;130.62;91615;96-006;Бестужево - Новый Ургал;Амурская область;Селемджинский район;Дальневосточная;Тындинский;;
Сковородино;53.99;123.94;95170;94-004;Бамовская - Белогорск;Амурская область;ГО Сковородино;Забайкальская;Могочинский регион;;
Сковородино;53.99;123.94;95170;94-017;Сковородино - ост. пункт 53 км;Амурская область;ГО Сковородино;Забайкальская;Могочинский регион;1;участковая 
Слава ;51.04;142.66;99769;96-073;Победино-Сахалинское - Ноглики; Сахалинская область;ГО Тымовский;Дальневосточная;Сахалинский;;
Слива;50.14;142.74;99701;96-073;Победино-Сахалинское - Ноглики; Сахалинская область;ГО Тымовский;Дальневосточная;Сахалинский;;
Слюдянка-1;51.66;103.72;93330;92-002;Иркутск-Пассажирский - Улан-Удэ;Республика Бурятия;Слюдянский район;Восточно-Сибирская;Улан-Удэнский;2;грузо-пассажирская
Слюдянская;47.35;142.00;99431;96-070;Холмск-Северный-Ильинск-Сахалинский; Сахалинская область;ГО Холмск;Дальневосточная;Сахалинский;;
Смирных-Сахалинский ;49.75;142.84;99680;96-064;Арсентьевка-Победино-Сахалинское; Сахалинская область;ГО Смирныховский ;Дальневосточная;Сахалинский;;
Смоляниново;43.29;132.46;98280;96-052;Угловая - Смоляниново;Приморский край;Шкотовский район;Дальневосточная;Владивостокский;;
Смоляниново;43.29;132.46;98280;96-054;Смоляниново - Дунай;Приморский край;Шкотовский район;Дальневосточная;Владивостокский;;
Смоляниново;43.29;132.46;98280;96-053;Смоляниново - Пост 132 км;Приморский край;Шкотовский район;Дальневосточная;Владивостокский;;
Советская Гавань;48.94;140.28;96840;96-020;Ванино-Советская Гавань;Хабаровский край;ГО Советская Гавань;Дальневосточная;Комсомольский ;;
Советское-Сахалинское ;47.50;142.68;99240;96-063;Южно-Сахалинск-Арсентьевка; Сахалинская область;ГО Долинский;Дальневосточная;Сахалинский;;
Совхоз Тельман;51.46;106.70;93608;92-009;Заудинский - Наушки;Забайкальский край;Селенгинский район;Восточно-Сибирская;Улан-Удэнский;5;промежуточная
Совхозная;43.34;132.03;98212;96-039;Барановский - Угольная;Приморский край;Надеждинский район;Дальневосточная;Владивостокский;;
Согда;50.32;132.29;91762;96-060;Новый Ургал - Известковая;Хабаровский край;Верхнебуреинский;Дальневосточная;Хабаровский;;
Сокол ;47.25;142.75;99150;96-063;Южно-Сахалинск-Арсентьевка; Сахалинская область;ГО Долинский;Дальневосточная;Сахалинский;;
Соктуй;50.25;116.59;94473;94-007;Борзя - Забайкальск;Забайкальский край;Борзинский район;Забайкальская;Борзинский регион;5;разъезд
Соллу;50.14;139.00;96646;96-019;Комсомольск-Сортировочный - Ванино;Хабаровский край;Ванинский;Дальневосточная;Комсомольский ;;
Солнечная;51.94;107.50;93534;92-002;Иркутск-Пассажирский - Улан-Удэ;Республика Бурятия;ГО Улан-Удэ;Восточно-Сибирская;Улан-Удэнский;;
Солнцевая;51.76;115.68;94770;94-002;Карымская - Куэнга;Забайкальский край;Шилкинский район;Забайкальская;Читинский регион;4;промежуточная 
Соловьевка;46.73;142.74;99003;96-062;Корсаков-Южно-Сахалинск; Сахалинская область;ГО Корсаков;Дальневосточная;Сахалинский;;
Солони;50.82;133.23;91834;96-010;Ургал 1 - Комсомольск-Сортировочный;Хабаровский край;Верхнебуреинский;Дальневосточная;Комсомольский ;;
Сонах;51.45;135.32;91881;96-010;Ургал 1 - Комсомольск-Сортировочный;Хабаровский край;Солнечный район;Дальневосточная;Комсомольский ;;
Сосновый;55.53;123.27;90945;96-001;Хани - Тында;Амурская область;Тындинский район;Дальневосточная;Тындинский;;
Сосновый Бор;51.00;107.49;93532;92-002;Иркутск-Пассажирский - Улан-Удэ;Республика Бурятия;ГО Улан-Удэ;Восточно-Сибирская;Улан-Удэнский;;
Сотниково;51.92;107.50;93531;92-002;Иркутск-Пассажирский - Улан-Удэ;Республика Бурятия;ГО Улан-Удэ;Восточно-Сибирская;Улан-Удэнский;;
Сохондо;51.82;112.53;94140;94-001;Петровский Завод - Карымская;Забайкальский край;Читинский район;Забайкальская;Читинский регион;4;промежуточная 
Спартак;50.53;128.96;95531;94-005;Белогорск - Архара;Амурская область;Октябрьский район;Забайкальская;Свободненский регион;;
Спасск-Дальний;44.60;132.82;97430;96-024;Хабаровск I - Сибирцево;Приморский край;Спасский район;Дальневосточная;Владивостокский;;
Спутник;43.24;132.04;98201;96-040;Угольная - Владивосток;Приморский край;ГО Владивосток;Дальневосточная;Владивостокский;;
Среднебелая;50.66;128.01;95430;94-018;Белогорск - Благовещенск;Амурская область;Ивановский район;Забайкальская;Свободненский регион;5;промежуточная 
Сретенск;52.25;117.69;94870;94-014;Куэнга - Сретенск;Забайкальский край;Сретенский район;Забайкальская;Читинский регион;;промежуточная 
Старомаячная;47.85;142.01;99461;96-070;Холмск-Северный-Ильинск-Сахалинский; Сахалинская область;ГО Томаринский ;Дальневосточная;Сахалинский;;
Старый Ключ;44.56;132.75;97440;96-024;Хабаровск I - Сибирцево;Приморский край;Спасский район;Дальневосточная;Владивостокский;;
Стеклозавод;51.86;107.54;93541;92-002;Иркутск-Пассажирский - Улан-Удэ;Республика Бурятия;ГО Улан-Удэ;Восточно-Сибирская;Улан-Удэнский;;
Степь;51.00;115.39;94380;94-006;Карымская - Борзя;Забайкальский край;Оловяннинский район;Забайкальская;Борзинский регион;4;промежуточная 
Стланик;51.39;132.32;91674;96-006;Бестужево - Новый Ургал;Хабаровский край;Верхнебуреинский;Дальневосточная;Комсомольский ;;
Стрелковая;43.00;132.34;98320;96-054;Смоляниново - Дунай;Приморский край;Шкотовский район;Дальневосточная;Владивостокский;;
Сулук;50.65;133.60;91840;96-010;Ургал 1 - Комсомольск-Сортировочный;Хабаровский край;Верхнебуреинский;Дальневосточная;Комсомольский ;;
Сулус;53.26;126.20;95261;94-004;Бамовская - Белогорск;Амурская область;Магдагачинский район;Забайкальская;Свободненский регион;5;остановочный пункт
Сульфат;51.37;106.58;93610;92-009;Заудинский - Наушки;Республика Бурятия;Селенгинский район;Восточно-Сибирская;Улан-Удэнский;5;промежуточная
Сунгач;44.91;133.16;97400;96-024;Хабаровск I - Сибирцево;Приморский край;Спасский район;Дальневосточная;Владивостокский;;
Сухановка;42.72;131.12;98730;96-044;Барановский - Гвоздево;Приморский край;Хасанский район;Дальневосточная;Владивостокский;;
Сухой Ручей;51.81;106.02;93464;92-002;Иркутск-Пассажирский - Улан-Удэ;Республика Бурятия;Кабанский район;Восточно-Сибирская;Улан-Удэнский;;
Сысоевка;44.21;133.34;97630;96-030;Сибирцево - Новочугуевка;Приморский край;Яковлевский район;Дальневосточная;Владивостокский;;
Сюльбан;56.47;116.87;90436;92-017;Лена Восточная-Хани;Забайкальский край;Каларский район;Забайкальская;Северо-Байкальский ;;разъезд
Тайдут;51.64;111.42;94122;94-001;Петровский Завод - Карымская;Забайкальский край;Хилокский район;Забайкальская;Читинский регион;4;обгонный пункт
Такое;47.56;142.64;99151;96-063;Южно-Сахалинск-Арсентьевка; Сахалинская область;ГО Долинский;Дальневосточная;Сахалинский;;
Таксимо;56.36;114.83;90440;92-017;Лена Восточная-Хани;Республика Бурятия;Муйский район;Восточно-Сибирская;Северо-Байкальский ;2;грузовая  
Таку;56.39;116.42;90438;92-017;Лена Восточная-Хани;Забайкальский край;Каларский район;Забайкальская;Северо-Байкальский ;;разъезд
Таланджа;49.46;131.57;91803;96-060;Новый Ургал - Известковая;Хабаровский край;Верхнебуреинский;Дальневосточная;Хабаровский;;
Талдан;53.69;124.82;95220;94-004;Бамовская - Белогорск;Амурская область;Сковородинский район;Забайкальская;Свободненский регион;3;грузовая 
Талиджак;50.87;134.24;91851;96-010;Ургал 1 - Комсомольск-Сортировочный;Хабаровский край;Верхнебуреинский;Дальневосточная;Комсомольский ;;
Таловка;52.11;107.14;93500;92-002;Иркутск-Пассажирский - Улан-Удэ;Республика Бурятия;Прибайкальский район;Восточно-Сибирская;Улан-Удэнский;4;промежуточная
Талума;56.56;121.89;90477;96-001;Хани - Тында;Амурская область;Тындинский район;Дальневосточная;Тындинский;;
Тальцы;51.85;107.78;93760;92-005;Заудинский - Петровский Завод;Республика Бурятия;ГО Улан-Удэ;Восточно-Сибирская;Улан-Удэнский;1;грузовая 
Тангомен;53.46;129.89;91571;96-006;Бестужево - Новый Ургал;Амурская область;Зейский район;Дальневосточная;Тындинский;;
Танхой;51.55;105.11;93422;92-002;Иркутск-Пассажирский - Улан-Удэ;Республика Бурятия;Кабанский район;Восточно-Сибирская;Улан-Удэнский;4;обгонный пункт
Таптугары;53.69;120.06;95090;94-003;Куэнга - Бамовская;Забайкальский край;Могочинский район;Забайкальская;Могочинский регион;4;промежуточная 
Таракановка;52.07;106.96;93492;92-002;Иркутск-Пассажирский - Улан-Удэ;Республика Бурятия;Кабанский район;Восточно-Сибирская;Улан-Удэнский;;
Тарбагатай;51.18;109.10;94040;94-001;Петровский Завод - Карымская;Забайкальский край;Петровск-Забайкальский район;Забайкальская;Читинский регион;4;промежуточная 
Тарманчукан;49.19;130.66;96100;96-011;Архара - Известковая;Амурская область;Архаринский район;Дальневосточная;Хабаровский;;
Тарская;51.63;114.50;94314;94-002;Карымская - Куэнга;Забайкальский край;Карымский район;Забайкальская;Читинский регион;4;обгонный пункт
Татакан;49.35;130.16;96070;96-011;Архара - Известковая;Амурская область;Архаринский район;Дальневосточная;Хабаровский;;
Татаурово;52.14;107.43;93520;92-002;Иркутск-Пассажирский - Улан-Удэ;Республика Бурятия;Прибайкальский район;Восточно-Сибирская;Улан-Удэнский;4;промежуточная
Таулан ;50.43;142.71;99732;96-073;Победино-Сахалинское - Ноглики; Сахалинская область;ГО Тымовский;Дальневосточная;Сахалинский;;
Тахтамыгда;54.11;123.61;95150;94-003;Куэнга - Бамовская;Амурская область;Сковородинский район;Забайкальская;Могочинский регион;4;промежуточная 
Тейсин;50.02;136.44;96501;96-018;Волочаевка 2 - Комсомольск-Сортировочный;Хабаровский край;Амурский район;Дальневосточная;Комсомольский ;;
Текан;54.04;121.78;95122;94-003;Куэнга - Бамовская;Амурская область;Сковородинский район;Забайкальская;Могочинский регион;3;железнодорожная 
Тельная;51.73;105.93;93461;92-002;Иркутск-Пассажирский - Улан-Удэ;Республика Бурятия;Кабанский район;Восточно-Сибирская;Улан-Удэнский;;
Темная;53.40;118.52;95051;94-003;Куэнга - Бамовская;Забайкальский край;Могочинский район;Забайкальская;Могочинский регион;5;остановочный пункт
Темная Падь;51.74;103.78;93324;92-002;Иркутск-Пассажирский - Улан-Удэ;Республика Бурятия;Слюдянский район;Восточно-Сибирская;Улан-Удэнский;;
Тёплое Озеро;49.00;131.88;96210;96-012;Известковая - Биробиджан 1;ЕАО;Облученский район;Дальневосточная;Хабаровский;;
Тигровый (рзд);43.18;132.88;98363;96-053;Смоляниново - Пост 132 км;Приморский край;Партизанский район;Дальневосточная;Владивостокский;;
Тимлюй;52.00;106.62;93480;92-002;Иркутск-Пассажирский - Улан-Удэ;Республика Бурятия;Кабанский район;Восточно-Сибирская;Улан-Удэнский;3;промежуточная
Тихая ;48.02;142.50;99510;96-064;Арсентьевка-Победино-Сахалинское; Сахалинская область;Макаровский район;Дальневосточная;Сахалинский;;
Тиховодное;44.44;132.57;97451;96-024;Хабаровск I - Сибирцево;Приморский край;Черниговский район;Дальневосточная;Владивостокский;;
Тихоречное;44.19;133.03;97600;96-030;Сибирцево - Новочугуевка;Приморский край;Анучинский район;Дальневосточная;Владивостокский;;
Токи;49.12;140.32;96752;96-019;Комсомольск-Сортировочный - Ванино;Хабаровский край;Ванинский;Дальневосточная;Комсомольский ;;
Тола;50.66;128.82;95521;94-005;Белогорск - Архара;Амурская область;Ромненский район;Забайкальская;Свободненский регион;3;железнодорожная 
Толбазиха;51.45;104.69;93402;92-002;Иркутск-Пассажирский - Улан-Удэ;Республика Бурятия;Кабанский район;Восточно-Сибирская;Улан-Удэнский;;
Томари ;47.75;142.05;99460;96-070;Холмск-Северный-Ильинск-Сахалинский; Сахалинская область;ГО Томаринский ;Дальневосточная;Сахалинский;;
Томичи;50.78;128.24;95420;94-018;Белогорск - Благовещенск;Амурская область;Белогорский район;Забайкальская;Свободненский регион;5;промежуточная 
Травяная;48.16;142.53;99512;96-064;Арсентьевка-Победино-Сахалинское; Сахалинская область;Макаровский район;Дальневосточная;Сахалинский;;
Третья Падь;46.70;142.74;99002;96-062;Корсаков-Южно-Сахалинск; Сахалинская область;ГО Корсаков;Дальневосточная;Сахалинский;;
Троицкий;44.81;132.01;97531;96-031;Сибирцево - Платоновка;Приморский край;Ханкайский район;Дальневосточная;Владивостокский;;
Троицкое;52.16;107.17;93501;92-002;Иркутск-Пассажирский - Улан-Удэ;Республика Бурятия;Прибайкальский район;Восточно-Сибирская;Улан-Удэнский;;
Ту;52.47;126.97;95301;94-004;Бамовская - Белогорск;Амурская область;Шимановский район;Забайкальская;Свободненский регион;4;обгонный пункт
Тудур;50.33;137.73;96602;96-019;Комсомольск-Сортировочный - Ванино;Хабаровский край;Комсомольский район;Дальневосточная;Комсомольский ;;
Тулучи;49.89;139.94;96680;96-019;Комсомольск-Сортировочный - Ванино;Хабаровский край;Ванинский;Дальневосточная;Комсомольский ;;
Туманово-Сахалинское ;48.72;142.84;99560;96-064;Арсентьевка-Победино-Сахалинское; Сахалинская область;Макаровский район;Дальневосточная;Сахалинский;;
Тумнин;49.67;140.10;96700;96-019;Комсомольск-Сортировочный - Ванино;Хабаровский край;Ванинский;Дальневосточная;Комсомольский ;;
Тунгала;53.55;129.45;91550;96-006;Бестужево - Новый Ургал;Амурская область;Зейский район;Дальневосточная;Тындинский;;
Тунгусский;48.55;134.56;96351;96-015;Волочаевка  - Дежневка;ЕАО;Смидовичский район;Дальневосточная;Хабаровский;;
Тур;50.19;129.34;95543;94-005;Белогорск - Архара;Амурская область;Завитинский район;Забайкальская;Свободненский регион;4;обгонный пункт
Тургутуй;51.84;112.64;94141;94-001;Петровский Завод - Карымская;Забайкальский край;Читинский район;Забайкальская;Читинский регион;4;обгонный пункт
Туринская;51.63;114.09;94302;94-001;Петровский Завод - Карымская;Забайкальский край;Карымский район;Забайкальская;Читинский регион;4;обгонный пункт
Тутаул;55.02;127.46;91280;96-006;Бестужево - Новый Ургал;Амурская область;Тындинский район;Дальневосточная;Тындинский;;
Туюн;51.36;132.07;91673;96-006;Бестужево - Новый Ургал;Хабаровский край;Верхнебуреинский;Дальневосточная;Комсомольский ;;
Тыгда;53.11;126.33;95270;94-004;Бамовская - Белогорск;Амурская область;Магдагачинский район;Забайкальская;Свободненский регион;3;грузовая 
Тымерсоль;53.60;126.09;95252;94-004;Бамовская - Белогорск;Амурская область;Магдагачинский район;Забайкальская;Свободненский регион;5;остановочный пункт
Тымовск ;50.84;142.68;99750;96-073;Победино-Сахалинское - Ноглики; Сахалинская область;ГО Тымовский;Дальневосточная;Сахалинский;;
Тында;55.14;124.74;91000;96-001;Хани - Тында;Амурская область;Тындинский район;Дальневосточная;Тындинский;0;внеклассная 
Тында;55.14;124.74;91000;96-002;Тында - Бамовская;Амурская область;Тындинский район;Дальневосточная;Тындинский;0;внеклассная 
Тырма;50.03;132.15;91770;96-060;Новый Ургал - Известковая;Хабаровский край;Верхнебуреинский;Дальневосточная;Хабаровский;;
Тыя ;55.76;109.27;90312;92-017;Лена Восточная-Хани;Республика Бурятия;Северо-Байкальский район;Восточно-Сибирская;Северо-Байкальский ;;разъезд
Тюкан;49.96;129.62;95631;94-005;Белогорск - Архара;Амурская область;Бурейский район;Забайкальская;Свободненский регион;4;обгонный пункт
Убукун;51.50;106.85;93606;92-009;Заудинский - Наушки;Забайкальский край;Селенгинский район;Восточно-Сибирская;Улан-Удэнский;5;разъезд
Угледарск;48.41;142.70;99541;96-064;Арсентьевка-Победино-Сахалинское; Сахалинская область;Макаровский район;Дальневосточная;Сахалинский;;
Угловая;43.34;132.11;98220;96-052;Угловая - Смоляниново;Приморский край;ГО Артем;Дальневосточная;Владивостокский;;
Угольная;43.30;132.06;98210;96-039;Барановский - Угольная;Приморский край;ГО Артем;Дальневосточная;Владивостокский;;
Угольная;43.30;132.06;98210;96-040;Угольная - Владивосток;Приморский край;ГО Артем;Дальневосточная;Владивостокский;;
Ударный;48.99;131.13;96141;96-011;Архара - Известковая;ЕАО;Облученский район;Дальневосточная;Хабаровский;;
Удоми;50.19;138.74;96641;96-019;Комсомольск-Сортировочный - Ванино;Хабаровский край;Комсомольский район;Дальневосточная;Комсомольский ;;
Украина;50.99;128.42;95411;94-004;Бамовская - Белогорск;Амурская область;Серышевский район;Забайкальская;Свободненский регион;4;железнодорожная 
Уктур;50.34;138.45;96630;96-019;Комсомольск-Сортировочный - Ванино;Хабаровский край;Комсомольский район;Дальневосточная;Комсомольский ;;
Укурей;52.35;117.02;94883;94-003;Куэнга - Бамовская;Забайкальский край;Чернышевский район;Забайкальская;Читинский регион;5;обгонный пункт
Улагир;53.68;129.14;91452;96-006;Бестужево - Новый Ургал;Амурская область;Зейский район;Дальневосточная;Тындинский;;
Улак;54.70;128.47;91310;96-006;Бестужево - Новый Ургал;Амурская область;Зейский район;Дальневосточная;Тындинский;;
Улан-Удэ;51.84;107.58;93550;92-002;Иркутск-Пассажирский - Улан-Удэ;Республика Бурятия;ГО Улан-Удэ;Восточно-Сибирская;Улан-Удэнский;;
Улан-Удэ;51.84;107.58;93550;92-003;Улан-Удэ - Заудинский;Республика Бурятия;ГО Улан-Удэ;Восточно-Сибирская;Улан-Удэнский;0;внеклассная 
Улей;52.65;117.15;94912;94-003;Куэнга - Бамовская;Забайкальский край;Чернышевский район;Забайкальская;Читинский регион;5;остановочный пункт
Улетуй;49.57;129.95;95702;94-005;Белогорск - Архара;Амурская область;Архаринский район;Забайкальская;Свободненский регион;3;железнодорожная 
Ульги;56.24;114.09;90602;92-017;Лена Восточная-Хани;Республика Бурятия;Муйский район;Восточно-Сибирская;Северо-Байкальский ;;разъезд
Ульма;51.53;131.37;91643;96-006;Бестужево - Новый Ургал;Амурская область;Мазановский район;Дальневосточная;Комсомольский ;;
Ульручьи;53.84;124.21;95213;94-004;Бамовская - Белогорск;Амурская область;Сковородинский район;Забайкальская;Свободненский регион;3;железнодорожная 
Ульякан;53.16;117.93;95032;94-003;Куэнга - Бамовская;Забайкальский край;Чернышевский район;Забайкальская;Могочинский регион;5;обгонный пункт
Ульяновский Строитель;54.12;128.99;91323;96-006;Бестужево - Новый Ургал;Амурская область;Зейский район;Дальневосточная;Тындинский;;
Улягир;54.04;123.27;95141;94-003;Куэнга - Бамовская;Амурская область;Сковородинский район;Забайкальская;Могочинский регион;5;обгонный пункт
Улятка;54.04;122.50;95133;94-003;Куэнга - Бамовская;Амурская область;Сковородинский район;Забайкальская;Могочинский регион;3;железнодорожная 
Унаха;55.15;126.59;91190;96-006;Бестужево - Новый Ургал;Амурская область;Тындинский район;Дальневосточная;Тындинский;;
Ургал 1;51.08;132.75;91735;96-010;Ургал 1 - Комсомольск-Сортировочный;Хабаровский край;Верхнебуреинский;Дальневосточная;Комсомольский ;;
Урил;49.23;130.48;96090;96-011;Архара - Известковая;Амурская область;Архаринский район;Дальневосточная;Хабаровский;;
Уркальту;50.93;134.40;91852;96-010;Ургал 1 - Комсомольск-Сортировочный;Хабаровский край;Солнечный район;Дальневосточная;Комсомольский ;;
Уркан;53.79;124.47;95216;94-004;Бамовская - Белогорск;Амурская область;Сковородинский район;Забайкальская;Свободненский регион;3;железнодорожная 
Урожайная-Сахалинская;47.71;142.01;99451;96-070;Холмск-Северный-Ильинск-Сахалинский; Сахалинская область;ГО Томаринский ;Дальневосточная;Сахалинский;;
Урульга;51.76;114.79;94750;94-002;Карымская - Куэнга;Забайкальский край;Карымский район;Забайкальская;Читинский регион;4;промежуточная 
Урулюнгуй;50.27;118.11;94590;94-009;Харанор - Приаргунск;Забайкальский край;Краснокаменский район;Забайкальская;Борзинский регион;;
Урулюнгуй;50.27;118.11;94590;94-010;Урулюнгуй - Краснокаменск;Забайкальский край;Краснокаменский район;Забайкальская;Борзинский регион;4;промежуточная 
Уруша;54.05;122.88;95130;94-003;Куэнга - Бамовская;Амурская область;Сковородинский район;Забайкальская;Могочинский регион;2;участковая 
Урюм;53.17;118.11;95040;94-003;Куэнга - Бамовская;Забайкальский край;Чернышевский район;Забайкальская;Могочинский регион;4;промежуточная 
Усково ;50.97;142.67;99751;96-073;Победино-Сахалинское - Ноглики; Сахалинская область;ГО Тымовский;Дальневосточная;Сахалинский;;
Уссурийск;43.80;131.98;98830;96-036;Уссурийск - Барановский;Приморский край;ГО Уссурийск;Дальневосточная;Владивостокский;;
Уссурийск;43.80;131.98;98830;96-037;Уссурийск - Воздвиженский;Приморский край;ГО Уссурийск;Дальневосточная;Владивостокский;;
Усть-Орочи;49.35;140.05;96720;96-019;Комсомольск-Сортировочный - Ванино;Хабаровский край;Ванинский;Дальневосточная;Комсомольский ;;
Усть-Пёра;51.45;128.13;95350;94-004;Бамовская - Белогорск;Амурская область;Свободненский район;Забайкальская;Свободненский регион;4;грузовая 
Утиный;48.64;134.60;96381;96-018;Волочаевка 2 - Комсомольск-Сортировочный;Хабаровский край;Амурский район;Дальневосточная;Хабаровский;;
Утулик;51.54;104.06;93375;92-002;Иркутск-Пассажирский - Улан-Удэ;Республика Бурятия;Слюдянский район;Восточно-Сибирская;Улан-Удэнский;5;обгонный пункт
Учитель;51.96;107.50;93533;92-002;Иркутск-Пассажирский - Улан-Удэ;Республика Бурятия;ГО Улан-Удэ;Восточно-Сибирская;Улан-Удэнский;;
Учугей;55.08;127.27;91231;96-006;Бестужево - Новый Ургал;Амурская область;Тындинский район;Дальневосточная;Тындинский;;
Ушман;50.41;132.27;91751;96-060;Новый Ургал - Известковая;Хабаровский край;Верхнебуреинский;Дальневосточная;Хабаровский;;
Ушумун;52.79;126.54;95290;94-004;Бамовская - Белогорск;Амурская область;Магдагачинский район;Забайкальская;Свободненский регион;3;участковая 
Февральск;52.46;130.85;91610;96-006;Бестужево - Новый Ургал;Амурская область;Тындинский район;Дальневосточная;Тындинский;;
Федосеев;54.94;124.52;91022;96-002;Тында - Бамовская;Амурская область;Тындинский район;Дальневосточная;Тындинский;;
Филаретовка;45.56;133.50;97360;96-024;Хабаровск I - Сибирцево;Приморский край;ГО Лесозаводск;Дальневосточная;Владивостокский;;
Фирсово;47.65;142.57;99243;96-063;Южно-Сахалинск-Арсентьевка; Сахалинская область;ГО Долинский;Дальневосточная;Сахалинский;;
Форель;49.09;135.15;96402;96-018;Волочаевка 2 - Комсомольск-Сортировочный;Хабаровский край;Амурский район;Дальневосточная;Хабаровский;;
Фридман;43.22;132.98;98371;96-053;Смоляниново - Пост 132 км;Приморский край;Партизанский район;Дальневосточная;Владивостокский;;
Хабаровск 1;48.50;135.07;97040;96-023;Дежневка - Хабаровск 1;Хабаровский край;ГО Хабаровск;Дальневосточная;Хабаровский;0;внеклассная 
Хабаровск 1;48.50;135.07;97040;96-024;Хабаровск 1 - Сибирцево;Хабаровский край;ГО Хабаровск;Дальневосточная;Хабаровский;0;внеклассная 
Хабаровск 2;48.43;135.13;97000;96-024;Хабаровск 1 - Сибирцево;Хабаровский край;ГО Хабаровск;Дальневосточная;Хабаровский;0;внеклассная 
